orderID,address,city_province,prop_type,condition,basement_finish,parking,neighborhood,stories,distance_to_subject,sale_price,dom,lot_size,age,gla,room_count,bed_count,bath_count,location_similarity,sale_date,price_per_sqft,property_class,sale_year,sale_month,sale_quarter,lot_size_unit,full_address,normalized_address,calculated_latitude,calculated_longitude
4762597,930 Amberdale Cres,Kingston ON K7M 6V1,Townhouse,Superior,Full/Finished,No Garage,"",2 Storey,0.15,378900.0,38.0,2680.0,49.0,1044.0,6.0,3.0,2.0,Similar,2024-10-25T00:00:00.000000,362.9310344827586,Basic,2024,10,4,SqM,"930 Amberdale Cres, Kingston ON K7M 6V1","930, Amberdale Crescent, Bayridge, Kingston, Eastern Ontario, Ontario, K7P 1A3, Canada",44.2493656,-76.5876493
4762597,771 Ashwood Dr,Kingston ON K7M 6X7,Townhouse,Inferior,Full/Finished,No Garage,"",2 Storey,0.02,327000.0,51.0,2680.0,49.0,1044.0,6.0,3.0,1.0,Inferior,2025-02-05T00:00:00.000000,313.2183908045977,Basic,2025,2,1,SqM,"771 Ashwood Dr, Kingston ON K7M 6X7","771, Ashwood Drive, Bayridge, Kingston, Eastern Ontario, Ontario, K7P 1A3, Canada",44.2493025,-76.5884279
4762597,995 Amberdale Cres,Kingston ON K7M 6X6,Townhouse,Inferior,Full/Part Finished,No Garage,"",2 Storey,0.09,315000.0,95.0,2680.0,49.0,1044.0,6.0,3.0,2.0,Inferior,2025-02-14T00:00:00.000000,301.7241379310345,Basic,2025,2,1,SqM,"995 Amberdale Cres, Kingston ON K7M 6X6","995, Amberdale Crescent, Bayridge, Kingston, Eastern Ontario, Ontario, K7M 5K8, Canada",44.2493117,-76.5893448
4762739,64 Deermist Dr,Porters Lake NS B3E 1P3,Detached,Similar,Full/Finished,Dbl. Att. Gar.,"",1 Storey,3.73,800000.0,141.0,2680.0,11.0,1560.55,6.0,3.0,2.0,Inferior,2025-01-16T00:00:00.000000,429.50236966824644,Basic,2025,1,1,SqM,"64 Deermist Dr, Porters Lake NS B3E 1P3","64, Deermist Drive, Porters Lake, Halifax Regional Municipality, Halifax County, Nova Scotia, B3E 1P3, Canada",44.7158625,-63.3063107
4762739,85 Oceanic Dr,East Lawrencetown NS B2Z 1T6,Detached,Good,Full/Finished,1.5Att.Gar./Dbl.Att.Gar.,"",1 Storey,8.98,950000.0,280.0,2680.0,11.0,1560.55,6.0,3.0,2.0,Inferior,2024-12-21T00:00:00.000000,429.50236966824644,Standard,2024,12,4,SqM,"85 Oceanic Dr, East Lawrencetown NS B2Z 1T6","85, Oceanic Drive, East Lawrencetown, Halifax Regional Municipality, Halifax County, Nova Scotia, B2Z 1T6, Canada",44.6506265,-63.3251089
4762739,270 Quinlan Dr,Head of Jeddore NS B0J 1P0,Detached,Good,Full/Part Finished,Driveway,"",1.5 Storey,17.33,829900.0,47.0,2680.0,12.0,1560.55,5.0,2.0,2.0,Similar,2024-11-23T00:00:00.000000,429.50236966824644,Standard,2024,11,4,SqM,"270 Quinlan Dr, Head of Jeddore NS B0J 1P0","270, Quinlan Drive, Jeddore Shores, Head of Jeddore, Halifax Regional Municipality, Halifax County, Nova Scotia, B0J 1P0, Canada",44.749812,-63.0450788
4763065,6 Marshall Ave,Ayr ON N0B 1E0,Detached,Superior,Rec Room,Dbl. Att. Gar.,"",2 Storey,0.31,1150000.0,7.0,15116.0,58.0,2003.0,8.0,4.0,2.5,Similar,2025-03-26T00:00:00.000000,574.1387918122816,Basic,2025,3,1,SqFt,"6 Marshall Ave, Ayr ON N0B 1E0","6 Marshall Ave, Ayr ON N0B 1E0",,
4763065,3219 Roseville Rd,Ayr ON N0B 1E0,Detached,Superior,Rec Room,Dbl. Att. Gar.,"",2 Storey,0.5,1130000.0,40.0,11138.0,1.0,2940.0,8.0,4.0,2.5,Inferior,2024-12-24T00:00:00.000000,384.3537414965986,Basic,2024,12,4,SqFt,"3219 Roseville Rd, Ayr ON N0B 1E0","3219 Roseville Rd, Ayr ON N0B 1E0",,
4763065,13 James Crt,Heidelberg ON N0B 2M1,Detached,Average,Rec/Bath,Dbl. Att. Gar.,"",2 Storey,23.23,1220000.0,6.0,29200.0,40.0,2365.0,7.0,3.0,2.5,Superior,2025-04-16T00:00:00.000000,515.8562367864694,Standard,2025,4,2,SqFt,"13 James Crt, Heidelberg ON N0B 2M1","13, James Court, Heidelberg, Wellesley, Region of Waterloo, Ontario, N0B 1Y0, Canada",43.523519,-80.622309
4763086,48 Stonewalk Dr,Kemptville ON K0G 1J0,Detached,Inferior,Full/Part Finished,Dbl. Att. Gar.,"",Bungalow,0.78,812000.0,8.0,3901951.85,2018.0,1571.0,6.0,3.0,2.0,Similar,2025-02-20T00:00:00.000000,516.8682367918523,Basic,2025,2,1,SqFt,"48 Stonewalk Dr, Kemptville ON K0G 1J0","48 Stonewalk Dr, Kemptville ON K0G 1J0",,
4763086,36 Stonewalk Dr,Kemptville ON K0G 1J0,Detached,Inferior,Full/Finished,Dbl. Att. Gar.,"",Bungalow,0.53,855000.0,8.0,2252171.24,2011.0,1610.0,6.0,3.0,2.5,Similar,2024-10-11T00:00:00.000000,531.055900621118,Basic,2024,10,4,SqFt,"36 Stonewalk Dr, Kemptville ON K0G 1J0","36 Stonewalk Dr, Kemptville ON K0G 1J0",,
4763086,56 Stonewalk Dr,Kemptville ON K0G 1J0,Detached,Similar,Full/Finished,Dbl. Att. Gar.,"",2 Storey,0.99,920000.0,13.0,1904032.0,1976.0,1976.0,8.0,5.0,4.0,Similar,2025-02-17T00:00:00.000000,465.58704453441294,Basic,2025,2,1,SqFt,"56 Stonewalk Dr, Kemptville ON K0G 1J0","56 Stonewalk Dr, Kemptville ON K0G 1J0",,
4763087,801-105 Dunbrack St,Halifax NS B3M 3G7,Condominium,Inferior,None,"1, Surface Stall","",1 Storey,0.0,380000.0,2.0,2680.0,47.0,1048.0,5.0,2.0,1.0,Similar,2025-04-15T00:00:00.000000,362.59541984732823,Basic,2025,4,2,SqM,"801-105 Dunbrack St, Halifax NS B3M 3G7","801-105 Dunbrack St, Halifax NS B3M 3G7",,
4763087,210-40 Regency Park Dr,Halifax NS B3S 1L4,Condominium,Similar,None,"1, Undgrnd. Stall","",1 Storey,1.43,475000.0,19.0,2680.0,25.0,1553.0,6.0,2.0,2.0,Similar,2025-02-18T00:00:00.000000,305.8596265292981,Basic,2025,2,1,SqM,"210-40 Regency Park Dr, Halifax NS B3S 1L4","Regency Park Drive, Woodcliffe Park, Halifax, Halifax Regional Municipality, Halifax County, Nova Scotia, B3S 1S9, Canada",44.6586812,-63.6694018
4763087,313-79 Bedros Lane,Halifax NS B3M 4X5,Condominium,Superior,None,"1, Undgrnd. Stall","",1 Storey,4.97,520000.0,62.0,2680.0,19.0,1483.0,6.0,3.0,2.0,Superior,2024-12-13T00:00:00.000000,350.64059339177345,Basic,2024,12,4,SqM,"313-79 Bedros Lane, Halifax NS B3M 4X5","Bedros Lane, Prince Edward Estates, Halifax, Halifax Regional Municipality, Halifax County, Nova Scotia, B3M 4X2, Canada",44.6998339,-63.6650147
4764094,123 Crestwood Pl,Dartmouth NS B2V 2P5,Detached,Superior,Part/Full Finished,Sgl. Att. Gar.,"",4 Level Split,0.38,703850.0,2.0,2680.0,36.0,1560.55,8.0,4.0,2.5,Similar,2025-04-14T00:00:00.000000,429.50236966824644,Basic,2025,4,2,SqM,"123 Crestwood Pl, Dartmouth NS B2V 2P5","123 Crestwood Pl, Dartmouth NS B2V 2P5",,
4764094,38 Deerbrooke Dr,Dartmouth NS B2V 1W3,Detached,Similar,Full/Finished,Sgl. Bin. Gar,"",3 Level Split,1.03,620000.0,1.0,2680.0,45.0,1560.55,6.0,3.0,1.5,Inferior,2024-12-13T00:00:00.000000,429.50236966824644,Basic,2024,12,4,SqM,"38 Deerbrooke Dr, Dartmouth NS B2V 1W3","38 Deerbrooke Dr, Dartmouth NS B2V 1W3",,
4764094,18 Becks Way,Dartmouth NS B2V 2C3,Detached,Inferior,Full/Finished,Sgl. Att. Gar.,"",2 Storey,0.23,662000.0,54.0,2680.0,39.0,1560.55,8.0,3.0,2.5,Similar,2024-11-18T00:00:00.000000,429.50236966824644,Basic,2024,11,4,SqM,"18 Becks Way, Dartmouth NS B2V 2C3","18 Becks Way, Dartmouth NS B2V 2C3",,
4764103,128 Donegall Dr,East York ON M4G 3G8,Semi Detached,Similar,Full/Finished,None,"",2 Storey,0.64,1680000.0,7.0,2604.0,95.0,1306.0,7.0,3.0,2.0,Similar,2025-03-31T00:00:00.000000,1286.3705972434916,Basic,2025,3,1,SqM,"128 Donegall Dr, East York ON M4G 3G8","128, Donegall Drive, Leaside-Bennington, Don Valley West, East York, Toronto, Golden Horseshoe, Ontario, M4G 3C1, Canada",43.7081568,-79.3749232
4764103,142 Donlea Dr,East York ON M4G 2M8,Semi Detached,Inferior,Full/Finished,Sgl. Det. gar.,"",2 Storey,0.54,1520000.0,5.0,3348.0,77.0,1334.0,6.0,3.0,2.0,Inferior,2025-03-23T00:00:00.000000,1139.4302848575712,Basic,2025,3,1,SqM,"142 Donlea Dr, East York ON M4G 2M8","Donlea Drive, Leaside-Bennington, Don Valley West, East York, Toronto, Golden Horseshoe, Ontario, M4G 2M8, Canada",43.7142117,-79.3663418
4764103,138 Banff Rd,Toronto ON M4P 2P5,Semi Detached,Similar,Full/Finished,Sgl. Att. Gar.,"",2 Storey,1.27,1600000.0,3.0,1936.0,81.0,1120.0,6.0,3.0,2.0,Similar,2024-12-05T00:00:00.000000,1428.5714285714287,Basic,2024,12,4,SqM,"138 Banff Rd, Toronto ON M4P 2P5","138, Banff Road, Mount Pleasant East, Don Valley West, Toronto, Golden Horseshoe, Ontario, M4P 1P1, Canada",43.7110574,-79.3827528
4761696,655 Allied Mews,Stittsville ON K2S 3A1,Townhouse,Average,Full/Finished,Sgl. Att. Gar.,"",2 Storey,0.15,705000.0,17.0,35862992.0,3.0,1802.0,8.0,4.0,2.5,Similar,2024-12-09T00:00:00.000000,391.2319644839068,Standard,2024,12,4,SqFt,"655 Allied Mews, Stittsville ON K2S 3A1","655, Allied Mews, Connections in Kanata, Stittsville, Ottawa, Eastern Ontario, Ontario, K2V 1E2, Canada",45.2860321,-75.9349485
4761696,514 Triangle St,Stittsville ON K2V 0M8,Townhouse,Good,Full/Finished,Sgl. Att. Gar.,"",2 Storey,3.54,755000.0,1.0,251002893.0,4.0,2131.0,7.0,3.0,2.5,Similar,2025-03-29T00:00:00.000000,354.29375879868604,Standard,2025,3,1,SqFt,"514 Triangle St, Stittsville ON K2V 0M8","514, Triangle Street, Bradley Commons, Kanata, Stittsville, Ottawa, Eastern Ontario, Ontario, K2V 0B4, Canada",45.2801111,-75.8918862
4761696,225 Lift Lane,Stittsville ON K2V 0M7,Townhouse,Good,Full/Finished,Dbl. Att. Gar.,"",2 Storey,3.43,768800.0,23.0,551264230.0,5.0,1758.0,7.0,3.0,2.5,Similar,2025-03-29T00:00:00.000000,437.3151308304892,Standard,2025,3,1,SqFt,"225 Lift Lane, Stittsville ON K2V 0M7","225, Lift Lane, Bradley Commons, Kanata, Stittsville, Ottawa, Eastern Ontario, Ontario, K2V 0B4, Canada",45.2797551,-75.8936064
4762154,306-79 Bedros Lane,Halifax NS B3M 4X5,Condominium,Inferior,None,"1, Undgrnd. Stall","",1 Storey,6.41,720000.0,5.0,2680.0,20.0,1560.55,7.0,2.0,2.0,Similar,2025-02-24T00:00:00.000000,429.50236966824644,Basic,2025,2,1,SqM,"306-79 Bedros Lane, Halifax NS B3M 4X5","Bedros Lane, Prince Edward Estates, Halifax, Halifax Regional Municipality, Halifax County, Nova Scotia, B3M 4X2, Canada",44.6998339,-63.6650147
4762154,401-11 Springvale Ave,Halifax NS B3N 0A3,Condominium,Superior,None,"2, Undgrnd. Stalls","",2 Storey,0.0,900000.0,23.0,2680.0,19.0,1560.55,7.0,2.0,2.0,Inferior,2024-11-21T00:00:00.000000,429.50236966824644,Basic,2024,11,4,SqM,"401-11 Springvale Ave, Halifax NS B3N 0A3","Springvale Avenue, Fairmount Ridge, Halifax, Halifax Regional Municipality, Halifax County, Nova Scotia, B3N 2A5, Canada",44.6460572,-63.6343911
4762154,111-11 Springvale Ave,Halifax NS B3N 0A3,Condominium,Inferior,None,"1, Undgrnd. Stall","",1 Storey,0.0,720000.0,0.0,2680.0,17.0,1560.55,6.0,2.0,2.0,Inferior,2024-10-18T00:00:00.000000,429.50236966824644,Basic,2024,10,4,SqM,"111-11 Springvale Ave, Halifax NS B3N 0A3","Springvale Avenue, Fairmount Ridge, Halifax, Halifax Regional Municipality, Halifax County, Nova Scotia, B3N 2A5, Canada",44.6460572,-63.6343911
4762330,118 Sandpiper Pk,Chestermere AB T1X 1Y8,Detached,Good,Full/Finished,Trpl. Att. Gar.,"",2 Storey,0.15,860000.0,31.0,500.0,3.0,2367.0,10.0,4.0,2.5,Inferior,2025-04-07T00:00:00.000000,363.3291085762569,Standard,2025,4,2,SqM,"118 Sandpiper Pk, Chestermere AB T1X 1Y8","Sandpiper Park, Kinniburgh South, Chestermere, Alberta, T1X 0K5, Canada",51.0157786,-113.8084161
4762330,19 Sandpiper Bend,Chestermere AB T1X 2S6,Detached,Good,Full/Finished,Trpl. Att. Gar.,"",2 Storey,0.5,890000.0,48.0,486.0,1.0,2614.0,9.0,5.0,2.5,Inferior,2025-02-08T00:00:00.000000,340.4743687834736,Premium,2025,2,1,SqM,"19 Sandpiper Bend, Chestermere AB T1X 2S6","Sandpiper Bend, Kinniburgh South, Chestermere, Alberta, T1X 0K5, Canada",51.0194384,-113.8062142
4762330,109 Kinniburgh Cove,Chestermere AB T1X 0Y6,Detached,Good,Full/Finished,Trpl. Att. Gar.,"",2 Storey,1.11,860000.0,31.0,459.0,7.0,2608.0,9.0,4.0,2.5,Inferior,2025-01-27T00:00:00.000000,329.7546012269939,Premium,2025,1,1,SqM,"109 Kinniburgh Cove, Chestermere AB T1X 0Y6","400 Kinniburgh Cove, Kinniburgh North, Chestermere, Alberta, T1X 1C1, Canada",51.0234292,-113.8083622
4762406,58 Blind Bay Dr,Blind Bay NS B3Z 4C1,Detached,Good,None,Dbl. Det. Gar.,"",1 Storey,0.89,1189500.0,179.0,2680.0,21.0,1560.55,7.0,3.0,3.0,Inferior,2025-01-25T00:00:00.000000,429.50236966824644,Standard,2025,1,1,SqM,"58 Blind Bay Dr, Blind Bay NS B3Z 4C1","58 Blind Bay Drive, 58, Blind Bay Drive, Shag End, Blind Bay, Halifax Regional Municipality, Halifax County, Nova Scotia, B3Z 4C1, Canada",44.5129654,-63.8199073
4762406,401 Viewmount Dr,Head of St Margarets Bay NS B3Z 2G4,Detached,Good,Full/Finished,Driveway,"",1 Storey,0.89,1653000.0,20.0,2680.0,54.0,1560.55,6.0,1.0,1.5,Superior,2024-12-19T00:00:00.000000,429.50236966824644,Standard,2024,12,4,SqM,"401 Viewmount Dr, Head of St Margarets Bay NS B3Z 2G4","401, Viewmount Drive, Allen Heights, Head of St. Margarets Bay, Halifax Regional Municipality, Halifax County, Nova Scotia, B3Z 2G4, Canada",44.6723977,-63.9070016
4762406,2 Crouchers Point Rd,Glen Haven NS B3Z 2W4,Detached,Good,Full/Finished,Dbl.At.G.+Sn.Det.G.,"",1.5 Storey,0.89,1800000.0,0.0,2680.0,34.0,1560.55,10.0,3.0,2.5,Superior,2024-06-28T00:00:00.000000,429.50236966824644,Standard,2024,6,2,SqM,"2 Crouchers Point Rd, Glen Haven NS B3Z 2W4","2, Crouchers Point Road, Mariner's Anchorage, Glen Haven, Halifax Regional Municipality, Halifax County, Nova Scotia, B3Z 2V6, Canada",44.6355616,-63.9121009
4761220,74 Gianmarco Way,Maple ON L6A 3J2,Semi Detached,Superior,Full/Finished,Sgl. Att. Gar.,"",2 Storey,1.22,1105000.0,5.0,2433.0,25.0,1695.0,6.0,3.0,3.0,Similar,2025-03-09T00:00:00.000000,651.9174041297935,Basic,2025,3,1,SqM,"74 Gianmarco Way, Maple ON L6A 3J2","74 Gianmarco Way, Maple ON L6A 3J2",,
4761220,20 Del Francesco Way,Maple ON L6A 3J6,Semi Detached,Inferior,Finished-illegal apartment,Sgl. Att. Gar.,"",2 Storey,1.39,1045000.0,16.0,2647.0,24.0,1572.0,7.0,3.0,3.5,Similar,2025-04-02T00:00:00.000000,664.7582697201018,Basic,2025,4,2,SqM,"20 Del Francesco Way, Maple ON L6A 3J6","20 Del Francesco Way, Maple ON L6A 3J6",,
4761220,3 Blackthorn Dr,Maple ON L6A 3C3,Semi Detached,Superior,Full/Finished,Sgl. Att. Gar.,"",2 Storey,2.09,1150000.0,8.0,2680.0,23.0,1489.0,7.0,3.0,3.5,Similar,2025-03-04T00:00:00.000000,772.3304231027536,Basic,2025,3,1,SqM,"3 Blackthorn Dr, Maple ON L6A 3C3","3, Blackthorn Drive, Maple, Vaughan, York Region, Golden Horseshoe, Ontario, L6A 2L1, Canada",43.8675716,-79.5174063
4761433,428 Heddas Way,Fall River NS B2T 0M2,Detached,Superior,Full/Finished,Dbl. (2Bay) Att. Gar.,"",1 Storey,11.52,1895000.0,123.0,2680.0,4.0,1560.55,7.0,3.0,2.5,Inferior,2025-02-21T00:00:00.000000,429.50236966824644,Basic,2025,2,1,SqM,"428 Heddas Way, Fall River NS B2T 0M2","428, Heddas Way, St Andrews West, Fall River, Halifax Regional Municipality, Halifax County, Nova Scotia, B2T 0M6, Canada",44.8198224,-63.6471083
4761433,158 Eaglewood Dr,Bedford NS B4A 3B2,Detached,Superior,Full/Finished,Dbl. Att. Gar.,"",2 Storey,1.14,1185000.0,3.0,2680.0,44.0,1560.55,7.0,4.0,3.0,Similar,2025-03-21T00:00:00.000000,429.50236966824644,Basic,2025,3,1,SqM,"158 Eaglewood Dr, Bedford NS B4A 3B2","158, Eaglewood Drive, Eaglewood, Bedford, Halifax Regional Municipality, Halifax County, Nova Scotia, B4A 3B2, Canada",44.724593,-63.6479006
4761433,107 Ahmadi Cres,Bedford NS B4A 4E5,Detached,Superior,Full/Finished,Dbl. Att. Gar.,"",2 Storey,2.91,1200000.0,69.0,2680.0,20.0,1560.55,11.0,5.0,3.5,Similar,2024-09-20T00:00:00.000000,429.50236966824644,Basic,2024,9,3,SqM,"107 Ahmadi Cres, Bedford NS B4A 4E5","107, Ahmadi Crescent, Paper Mill Lake, Mill Cove, Bedford, Halifax Regional Municipality, Halifax County, Nova Scotia, B4A 4E5, Canada",44.7104182,-63.6936036
4761446,868 Roshan Dr,Kingston ON K7P 0B2,Detached,Inferior,Full/Finished/Inlaw,Double Attached,"",Bungalow,1.89,797000.0,107.0,491195831.0,13.0,1805.0,17.0,2.0,3.0,Inferior,2025-03-19T00:00:00.000000,441.55124653739614,Basic,2025,3,1,SqFt,"868 Roshan Dr, Kingston ON K7P 0B2","Roshan Drive, Westbrook, Kingston, Eastern Ontario, Ontario, K7P 2V3, Canada",44.2714155,-76.6278227
4761446,1249 Carfa Cres,Kingston ON K7P 0M7,Detached,Superior,Full Finished/Walkout,Double Attached,"",Bungalow,0.51,1095000.0,10.0,501185900.0,5.0,1741.0,9.0,3.0,3.0,Superior,2024-11-16T00:00:00.000000,628.9488799540494,Basic,2024,11,4,SqFt,"1249 Carfa Cres, Kingston ON K7P 0M7","Carfa Crescent, Woodhaven, Kingston, Eastern Ontario, Ontario, K7P 0K7, Canada",44.2644307,-76.6020858
4761446,891 Safari Dr,Kingston ON K7M 6W2,Detached,Inferior,Full Finished/Walkout,Double Attached,"",Split Level,1.12,856000.0,23.0,601106600.0,46.0,2094.0,16.0,3.0,2.5,Inferior,2024-11-20T00:00:00.000000,408.7870105062082,Basic,2024,11,4,SqFt,"891 Safari Dr, Kingston ON K7M 6W2","891, Safari Drive, Collins Bay, Kingston, Eastern Ontario, Ontario, K7M 6H9, Canada",44.252739,-76.6137454
4759647,209 Glen Arbour Way,Hammonds Plains NS B4B 1T5,Detached,Superior,Full/Finished,Dbl. Att. Gar.,"",2 Storey,1.3,930000.0,93.0,2680.0,25.0,1560.55,7.0,2.0,2.5,Superior,2025-04-07T00:00:00.000000,429.50236966824644,Basic,2025,4,2,SqM,"209 Glen Arbour Way, Hammonds Plains NS B4B 1T5","209, Glen Arbour Way, Glen Arbour, Hammonds Plains, Halifax Regional Municipality, Halifax County, Nova Scotia, B4B 1T5, Canada",44.7472497,-63.7727395
4759647,1 Virginia Dr,Hammonds Plains NS B4B 1S5,Detached,Inferior,Full/Finished,Dbl. (2Bay) Att. Gar.,"",2 Storey,5.27,692000.0,82.0,2680.0,28.0,1560.55,7.0,4.0,2.5,Inferior,2025-02-21T00:00:00.000000,429.50236966824644,Basic,2025,2,1,SqM,"1 Virginia Dr, Hammonds Plains NS B4B 1S5","1, Virginia Drive, Kingswood, Hammonds Plains, Halifax Regional Municipality, Halifax County, Nova Scotia, B4B 1S5, Canada",44.6986092,-63.7655647
4759647,1693 White Hills Run,Hammonds Plains NS B4B 1W1,Detached,Inferior,Full/Unfinished,Driveway,"",2 Storey,3.5,588000.0,5.0,2680.0,21.0,1560.55,6.0,3.0,2.5,Inferior,2025-02-14T00:00:00.000000,429.50236966824644,Basic,2025,2,1,SqM,"1693 White Hills Run, Hammonds Plains NS B4B 1W1","1693, White Hills Run, White Hills Village, Glen Arbour, Hammonds Plains, Halifax Regional Municipality, Halifax County, Nova Scotia, B4B 1W1, Canada",44.7709438,-63.7675499
4759723,142 Chenoa Way,Nepean ON K2J 0W8,Detached,Similar,Full/Finished,Dbl. Att. Gar.,"",2-Storey,1.74,1435000.0,79.0,50.151236196,2009.0,3574.0,8.0,4.0,4.5,Similar,2025-01-25T00:00:00.000000,401.51091214325686,Basic,2025,1,1,SqM,"142 Chenoa Way, Nepean ON K2J 0W8","142, Chenoa Way, Barrhaven West, Nepean, Ottawa, Eastern Ontario, Ontario, K2J 6H2, Canada",45.2417005,-75.7220961
4759723,100 Brambling Way,Nepean ON K2J 5V3,Detached,Inferior,Full/Finished,Dbl. Att. Gar.,"",2-Storey,1.05,1150000.0,16.0,2680.0,2012.0,3756.0,8.0,4.0,4.5,Similar,2025-01-31T00:00:00.000000,306.17678381256655,Basic,2025,1,1,SqM,"100 Brambling Way, Nepean ON K2J 5V3","100, Brambling Way, Barrhaven West, Nepean, Ottawa, Eastern Ontario, Ontario, K2J 5W9, Canada",45.249284,-75.735482
4759723,334 Shadehill Cres,Nepean ON K2J 0L6,Detached,Inferior,Full/Finished,Dbl. Att. Gar.,"",2-Storey,0.91,1244900.0,13.0,2680.0,2007.0,2442.0,8.0,3.0,3.5,Similar,2025-02-05T00:00:00.000000,509.7870597870598,Basic,2025,2,1,SqM,"334 Shadehill Cres, Nepean ON K2J 0L6","334, Shadehill Crescent, Barrhaven West, Nepean, Ottawa, Eastern Ontario, Ontario, K2J 0E5, Canada",45.249432,-75.7227644
4760530,3948 Vandorf Siderd,Stouffville ON L4A 4K3,Detached,Similar,Full Finished/Walkout,Dbl. Att. Gar.,"",Bungalow Raised,1.51,2580000.0,104.0,10.029,12.0,2017.0,6.0,3.0,3.5,Similar,2025-03-28T00:00:00.000000,1279.127416955875,Basic,2025,3,1,SqM,"3948 Vandorf Siderd, Stouffville ON L4A 4K3","3948 Vandorf Siderd, Stouffville ON L4A 4K3",,
4760530,11 Union St,Stouffville ON L0H 1G0,Detached,Inferior,Full Finished/Walkout,Dbl. Att. Gar.,"",Bungalow,7.58,2430000.0,60.0,1.22,37.0,2133.0,7.0,3.0,3.0,Similar,2024-12-03T00:00:00.000000,1139.240506329114,Basic,2024,12,4,SqM,"11 Union St, Stouffville ON L0H 1G0","11, Union Street, Gormley, Whitchurch-Stouffville, York Region, Golden Horseshoe, Ontario, L4A 2J4, Canada",43.9406946,-79.3806241
4760530,9 Elias Snider Crt,Stouffville ON L4A 2G3,Detached,Inferior,Full/Finished,Trpl. Att. Gar.,"",Bungalow,3.46,2200000.0,59.0,1.47,25.0,2676.0,11.0,4.0,4.5,Similar,2024-09-06T00:00:00.000000,822.1225710014947,Basic,2024,9,3,SqM,"9 Elias Snider Crt, Stouffville ON L4A 2G3","9, Elias Snider Court, Whitchurch-Stouffville, York Region, Golden Horseshoe, Ontario, L0H 1G0, Canada",43.9917143,-79.3913423
4760630,133 William St,Kingston ON K7L 2C7,Townhouse,Inferior,Full/Part Finished,1 Parking space,"",2 1/2 Storey,0.63,890000.0,13.0,191062014.0,100.0,1560.55,9.0,5.0,2.5,Superior,2025-01-20T00:00:00.000000,429.50236966824644,Basic,2025,1,1,SqFt,"133 William St, Kingston ON K7L 2C7","133, William Street, Sydenham, Kingston, Eastern Ontario, Ontario, K7L 5G2, Canada",44.2296461,-76.4871159
4760630,297 University Ave,Kingston ON K7L 3R3,Townhouse,Inferior,Cellar,1 Parking space,"",2 1/2 Storey,0.37,770000.0,9.0,171051785.0,100.0,1560.55,10.0,5.0,1.5,Similar,2025-03-26T00:00:00.000000,429.50236966824644,Basic,2025,3,1,SqFt,"297 University Ave, Kingston ON K7L 3R3","297, University Avenue, University District, Kingston, Eastern Ontario, Ontario, K7L 1C3, Canada",44.2328471,-76.4956051
4760630,368 Barrie St,Kingston ON K7K 3T3,Townhouse,Inferior,Cellar,No Parking,"",2-Storey,0.07,770000.0,13.0,1758986.0,100.0,1560.55,10.0,6.0,2.0,Similar,2025-04-07T00:00:00.000000,429.50236966824644,Basic,2025,4,2,SqFt,"368 Barrie St, Kingston ON K7K 3T3","368, Barrie Street, University District, Kingston, Eastern Ontario, Ontario, K7K 3T1, Canada",44.2343098,-76.4906037
4760651,57 Taleen Dr,Lower Sackville NS B4C 4A5,Detached,Similar,Full/Finished,Driveway,"",2 Storey,0.37,487000.0,2.0,3400.0,32.0,1200.0,6.0,3.0,1.5,Similar,2025-02-21T00:00:00.000000,405.8333333333333,Basic,2025,2,1,SqM,"57 Taleen Dr, Lower Sackville NS B4C 4A5","57, Taleen Drive, Armcrest, Lower Sackville, Halifax Regional Municipality, Halifax County, Nova Scotia, B4C 4A5, Canada",44.7909547,-63.6873746
4760651,4 Victoria Dr,Lower Sackville NS B4C 4C3,Detached,Similar,Full/Finished,Driveway,"",2 Storey,0.12,505000.0,13.0,3719.0,32.0,1540.0,6.0,3.0,1.5,Similar,2025-03-27T00:00:00.000000,327.9220779220779,Basic,2025,3,1,SqM,"4 Victoria Dr, Lower Sackville NS B4C 4C3","4, Victoria Drive, Armcrest, Lower Sackville, Halifax Regional Municipality, Halifax County, Nova Scotia, B4C 4C3, Canada",44.7899188,-63.6843752
4760651,9 Penstock Crt,Middle Sackville NS B4E 2L6,Detached,Similar,Full/Part Finished,Driveway,"",2 Storey,1.62,475000.0,4.0,3148.0,37.0,1320.0,6.0,3.0,1.5,Similar,2024-12-17T00:00:00.000000,359.8484848484849,Basic,2024,12,4,SqM,"9 Penstock Crt, Middle Sackville NS B4E 2L6","9, Penstock Court, Millwood Village, Middle Sackville, Halifax Regional Municipality, Halifax County, Nova Scotia, B4E 2L6, Canada",44.7885333,-63.7034318
4760900,1059 Cornerstone St NE,Calgary AB T3N 1G6,Detached,Good,Full/Finished,Dbl. Det. Gar.,"",2 Storey,0.06,686000.0,67.0,285.0,9.0,1808.0,8.0,3.0,2.5,Similar,2025-03-20T00:00:00.000000,379.42477876106193,Standard,2025,3,1,SqM,"1059 Cornerstone St NE, Calgary AB T3N 1G6","1059, Cornerstone Street NE, Cornerstone, Calgary, Alberta, T3N 1A8, Canada",51.1622189,-113.9427959
4760900,312 Redstone Ave NE,Calgary AB T3N 1M8,Detached,Good,Full/Finished,Dbl. Det. Gar.,"",2 Storey,1.33,690000.0,27.0,282.0,6.0,1801.0,6.0,3.0,2.5,Similar,2025-02-12T00:00:00.000000,383.1204886174348,Standard,2025,2,1,SqM,"312 Redstone Ave NE, Calgary AB T3N 1M8","312, Redstone Avenue NE, Redstone, Calgary, Alberta, T3N 1B5, Canada",51.1731819,-113.9521093
4760900,90 Corner Ridge Mews NE,Calgary AB T3N 1X4,Detached,Good,Full/Finished,Off Street,"",2 Storey,1.53,680000.0,58.0,314.0,4.0,1640.0,7.0,3.0,2.5,Superior,2025-03-10T00:00:00.000000,414.6341463414634,Standard,2025,3,1,SqM,"90 Corner Ridge Mews NE, Calgary AB T3N 1X4","90, Corner Ridge Mews NE, Cornerstone, Calgary, Alberta, T3J 5N1, Canada",51.149595,-113.9363582
4742669,523 35A St NW,Calgary AB T2N 3A1,Detached,Similar,Full/Finished,Sgl. Det. gar.,"",Bungalow,0.07,802500.0,15.0,492.0,73.0,94.0,5.0,2.0,2.5,Superior,2024-11-22T00:00:00.000000,8537.234042553191,Basic,2024,11,4,SqM,"523 35A St NW, Calgary AB T2N 3A1","35A Street NW, Parkdale, Calgary, Alberta, T2N 0V7, Canada",51.0615789,-114.1388977
4742669,2425 3 Ave NW,Calgary AB T2N 0L2,Detached,Inferior,Part/Unfinished,Sgl. Det. gar.,"",1.5 Storey,1.77,670000.0,2.0,503.0,80.0,94.0,5.0,2.0,2.5,Superior,2025-01-24T00:00:00.000000,7127.659574468085,Basic,2025,1,1,SqM,"2425 3 Ave NW, Calgary AB T2N 0L2","3 Avenue NW, Parkdale, Calgary, Alberta, T2N 0L9, Canada",51.0568067,-114.1345477
4742669,2536 4 Ave NW,Calgary AB T2N 0P4,Detached,Similar,Full/Finished,Sgl. Det. gar.,"",Bungalow,1.54,810000.0,21.0,501.0,74.0,78.0,4.0,2.0,2.5,Superior,2024-12-26T00:00:00.000000,10384.615384615385,Basic,2024,12,4,SqM,"2536 4 Ave NW, Calgary AB T2N 0P4","4 Avenue NW, Sunnyside, Calgary, Alberta, T2N 0M9, Canada",51.0578624,-114.0825175
4752865,3116 Winspear Cres SW,Edmonton AB T6X 1P3,Detached,Similar,Full Finished/Walkout,Dbl. Att. Gar.,"",2 Storey,2.17,842500.0,90.0,514.0,10.0,2770.0,8.0,4.0,2.5,Inferior,2024-11-01T00:00:00.000000,304.15162454873644,Basic,2024,11,4,SqM,"3116 Winspear Cres SW, Edmonton AB T6X 1P3","Winspear Crescent SW, Walker, Southeast, Edmonton, Alberta, T6X 0M8, Canada",53.4171695,-113.4396124
4752865,716 40 St SW,Edmonton AB T6X 2G4,Detached,Similar,Full Finished/Walkout,Dbl. Att. Gar.,"",2 Storey,4.69,844707.0,33.0,430.0,9.0,2556.0,7.0,3.0,2.5,Inferior,2024-08-25T00:00:00.000000,330.4800469483568,Basic,2024,8,3,SqM,"716 40 St SW, Edmonton AB T6X 2G4","40 Street SW, Charlesworth, Southeast, Edmonton, Alberta, T6X 2W7, Canada",53.4297537,-113.4022926
4752865,1253 Adamson Dr SW,Edmonton AB T6W 1Z4,Detached,Superior,Full Finished/Walkout,Trpl. Att. Gar.,"",2 Storey,3.27,1194500.0,108.0,675.0,13.0,3364.0,8.0,4.0,2.5,Superior,2025-01-24T00:00:00.000000,355.0832342449465,Basic,2025,1,1,SqM,"1253 Adamson Dr SW, Edmonton AB T6W 1Z4","Adamson Drive SW, Allard, Heritage Valley, Edmonton, Alberta, T6W 2N7, Canada",53.4034952,-113.5147155
4755196,1959 Montclair Ave,Orléans ON K1W 1H9,Detached,Inferior,Full/Unfinished,Dbl. Att. Gar.,"",2 Storey,4.01,942500.0,8.0,471165541.0,27.0,2596.0,10.0,4.0,2.5,Similar,2025-02-07T00:00:00.000000,363.05855161787366,Basic,2025,2,1,SqFt,"1959 Montclair Ave, Orléans ON K1W 1H9","1959, Montclair Avenue, Chapel Hill South, Orléans, Orléans South-Navan, Ottawa, Eastern Ontario, Ontario, K1W 1G3, Canada",45.439361,-75.5332056
4755196,415 Hepatica Way,Orléans ON K4A 1G3,Detached,Inferior,Full/Unfinished,Dbl. Att. Gar.,"",2 Storey,0.43,1085000.0,38.0,42944085.0,7.0,3351.0,10.0,4.0,3.5,Similar,2025-03-31T00:00:00.000000,323.7839450910176,Basic,2025,3,1,SqFt,"415 Hepatica Way, Orléans ON K4A 1G3","415, Hepatica Way, Avalon, Orléans, Orléans South-Navan, Ottawa, Eastern Ontario, Ontario, K4A 0Z1, Canada",45.4434418,-75.4869197
4755196,156 Aquarium Ave,Orléans ON K4A 1L1,Detached,Superior,Full/Finished,Dbl. Att. Gar.,"",2 Storey,0.84,1130000.0,2.0,42954230.0,5.0,3071.0,8.0,4.0,3.5,Similar,2025-03-08T00:00:00.000000,367.9583197655487,Basic,2025,3,1,SqFt,"156 Aquarium Ave, Orléans ON K4A 1L1","156, Aquarium Avenue, Avalon, Orléans, Orléans South-Navan, Ottawa, Eastern Ontario, Ontario, K4A 0Z1, Canada",45.4453295,-75.4934274
4756192,1606-1111 10 St SW,Calgary AB T2R 1E3,High Rise Apartment,Inferior,None,1 Underground Stall,"",1 Storey,2.3,517500.0,14.0,2680.0,13.0,965.0,6.0,2.0,2.5,Inferior,2025-01-31T00:00:00.000000,536.2694300518135,Basic,2025,1,1,SqM,"1606-1111 10 St SW, Calgary AB T2R 1E3","1606-1111 10 St SW, Calgary AB T2R 1E3",,
4756192,3205-930 6 Ave SW,Calgary AB T2P 1J3,High Rise Apartment,Inferior,None,1 Underground Stall,"",1 Storey,1.92,574900.0,31.0,2680.0,8.0,980.69,6.0,2.0,2.5,Superior,2025-02-12T00:00:00.000000,586.2199063924379,Basic,2025,2,1,SqM,"3205-930 6 Ave SW, Calgary AB T2P 1J3","3205-930 6 Ave SW, Calgary AB T2P 1J3",,
4756192,Unit 2602 - 510 6 Avenue SE,"Calgary , Alberta, T2G 0H1",High Rise Apartment,Inferior,None,2 Underground Stalls,"",1 Storey,0.21,607500.0,41.0,2680.0,9.0,1037.62,5.0,2.0,2.5,Superior,2025-03-27T00:00:00.000000,585.4744511478191,Basic,2025,3,1,SqM,"Unit 2602 - 510 6 Avenue SE, Calgary , Alberta, T2G 0H1","Unit 2602 - 510 6 Avenue SE, Calgary , Alberta, T2G 0H1",,
4756320,3018 Arthurs Cres SW,Edmonton AB T6W 2H9,Detached,Similar,Full/Unfinished,Dbl. Det. Gar.,"",2 Storey,0.51,441500.0,83.0,253.0,11.0,1425.0,5.0,3.0,2.5,Similar,2024-11-21T00:00:00.000000,309.82456140350877,Basic,2024,11,4,SqM,"3018 Arthurs Cres SW, Edmonton AB T6W 2H9","Arthurs Crescent SW, Allard, Heritage Valley, Edmonton, Alberta, T6W 2V3, Canada",53.4018493,-113.5224961
4756320,146 Allard Link SW,Edmonton AB T6W 2J1,Detached,Similar,Full/Unfinished,Dbl. Det. Gar.,"",2 Storey,0.67,468000.0,99.0,348.0,9.0,1580.0,5.0,3.0,2.5,Similar,2024-10-12T00:00:00.000000,296.2025316455696,Basic,2024,10,4,SqM,"146 Allard Link SW, Edmonton AB T6W 2J1","Allard Link SW, Allard, Heritage Valley, Edmonton, Alberta, T6W 0R7, Canada",53.4026476,-113.5207349
4756320,645 Allard Blvd SW,Edmonton AB T6W 2G3,Detached,Similar,Full/Unfinished,Dbl. Det. Gar.,"",2 Storey,0.81,478000.0,10.0,406.0,11.0,1440.0,5.0,3.0,2.5,Similar,2025-02-27T00:00:00.000000,331.94444444444446,Basic,2025,2,1,SqM,"645 Allard Blvd SW, Edmonton AB T6W 2G3","Allard Boulevard SW, Allard, Heritage Valley, Edmonton, Alberta, T6W 0W8, Canada",53.3975371,-113.534038
4756829,283 Falsetto St,Orléans ON K1W 0S4,Townhouse,Superior,Full/Finished,Sgl. Att. Gar.,"",2 Storey,1.39,635000.0,21.0,24.88691722,2024.0,1569.0,6.0,3.0,3.5,Similar,2025-02-04T00:00:00.000000,404.7163798597833,Basic,2025,2,1,SqM,"283 Falsetto St, Orléans ON K1W 0S4","283, Falsetto Street, Chapel Hill South, Orléans, Orléans South-Navan, Ottawa, Eastern Ontario, Ontario, K1W 1K3, Canada",45.4288979,-75.5209637
4756829,783 Percifor Way,Orléans ON K1W 0E5,Townhouse,Similar,Full/Finished,Sgl. Att. Gar.,"",2 Storey,1.57,612500.0,25.0,2680.0,2011.0,1740.0,7.0,3.0,2.5,Similar,2025-02-21T00:00:00.000000,352.01149425287355,Basic,2025,2,1,SqM,"783 Percifor Way, Orléans ON K1W 0E5","783, Percifor Way, Chapel Hill South, Orléans, Orléans South-Navan, Ottawa, Eastern Ontario, Ontario, K1C 7G4, Canada",45.429647,-75.5251895
4756829,178 Joshua St,Orléans ON K1W 0C4,Townhouse,Superior,Full/Finished,Sgl. Att. Gar.,"",2 Storey,1.61,632000.0,9.0,2680.0,2019.0,1515.0,6.0,3.0,2.5,Similar,2025-02-16T00:00:00.000000,417.1617161716172,Basic,2025,2,1,SqM,"178 Joshua St, Orléans ON K1W 0C4","178, Joshua Street, Chapel Hill South, Orléans, Orléans South-Navan, Ottawa, Eastern Ontario, Ontario, K1W 1K3, Canada",45.4261717,-75.5199479
4757939,924 15 Ave NE,Calgary AB T2E 1J1,Detached,Similar,Full/Finished,Dbl. Det. Gar.,"",Bi-Level,0.77,760000.0,22.0,557.0,72.0,99.0,5.0,3.0,2.5,Superior,2025-02-26T00:00:00.000000,7676.767676767677,Basic,2025,2,1,SqM,"924 15 Ave NE, Calgary AB T2E 1J1","924, 15 Avenue NE, Renfrew, Calgary, Alberta, T2E 5H2, Canada",51.0661255,-114.0411177
4757939,632 12 Ave NE,Calgary AB T2E 1B1,Detached,Superior,Full/Finished,Dbl. Det. Gar.,"",Bungalow,0.88,773000.0,97.0,557.0,81.0,58.0,4.0,1.0,2.5,Similar,2025-01-03T00:00:00.000000,13327.586206896553,Basic,2025,1,1,SqM,"632 12 Ave NE, Calgary AB T2E 1B1","632, 12 Avenue NE, Renfrew, Calgary, Alberta, T2E 3K5, Canada",51.063468,-114.0490404
4757939,3310 Centre St NE,Calgary AB T2E 2X8,Detached,Similar,Full/Finished,Dbl. Det. Gar.,"",Bungalow,3.01,650000.0,123.0,557.0,76.0,88.0,5.0,2.0,2.5,Inferior,2025-01-06T00:00:00.000000,7386.363636363636,Basic,2025,1,1,SqM,"3310 Centre St NE, Calgary AB T2E 2X8","3310 Centre St NE, Calgary AB T2E 2X8",,
4757966,2207-950 Arbour Lake Rd NW,Calgary AB T3G 5B3,Low Rise Apartment,Good,None,2 UG Stalls,"",1 Storey,0.61,378900.0,77.0,2680.0,22.0,1130.0,7.0,2.0,2.5,Similar,2025-04-04T00:00:00.000000,335.30973451327435,Standard,2025,4,2,SqM,"2207-950 Arbour Lake Rd NW, Calgary AB T3G 5B3","2207-950 Arbour Lake Rd NW, Calgary AB T3G 5B3",,
4757966,215-88 Arbour Lake Rd NW,Calgary AB T3G 0C2,Low Rise Apartment,Good,None,1 UG Stall,"",1 Storey,0.0,328500.0,35.0,2680.0,17.0,950.0,6.0,2.0,2.5,Similar,2025-03-11T00:00:00.000000,345.7894736842105,Standard,2025,3,1,SqM,"215-88 Arbour Lake Rd NW, Calgary AB T3G 0C2","Arbour Lake Road NW, Arbour Lake, Calgary, Alberta, T3G 4H3, Canada",51.1340681,-114.2062524
4757966,206-88 Arbour Lake Rd NW,Calgary AB T3G 0C2,Low Rise Apartment,Good,None,2 UG Stalls,"",1 Storey,0.0,384000.0,19.0,2680.0,17.0,1060.09,6.0,2.0,2.5,Similar,2025-03-12T00:00:00.000000,362.2333952777595,Standard,2025,3,1,SqM,"206-88 Arbour Lake Rd NW, Calgary AB T3G 0C2","Arbour Lake Road NW, Arbour Lake, Calgary, Alberta, T3G 4H3, Canada",51.1340681,-114.2062524
4758025,4 Rockcliff Pt NW,Calgary AB T3G 5Z4,Detached,Good,Full/Finished,Trpl. Att. Gar.,"",2 Storey,0.06,1249000.0,46.0,677.0,19.0,285.0,8.0,3.0,3.5,Inferior,2024-12-09T00:00:00.000000,4382.456140350877,Standard,2024,12,4,SqM,"4 Rockcliff Pt NW, Calgary AB T3G 5Z4","Rockcliff Point NW, Rocky Ridge, Calgary, Alberta, T3G 0C8, Canada",51.1491574,-114.2417611
4758025,61 Rockford Rd NW,Calgary AB T3G 0E1,Detached,Good,Full/Finished,Dbl. Att. Gar.,"",2 Storey,0.24,1235000.0,6.0,512.0,12.0,240.0,8.0,3.0,3.5,Similar,2025-01-16T00:00:00.000000,5145.833333333333,Standard,2025,1,1,SqM,"61 Rockford Rd NW, Calgary AB T3G 0E1","Rockford Road NW, Rocky Ridge, Calgary, Alberta, T3R 1A6, Canada",51.1523687,-114.2383851
4758025,1 Rock Lake Pt NW,Calgary AB T3G 0E9,Detached,Superior,Full/Unfinished,Trpl. Att. Gar.,"",2 Storey,0.43,1175000.0,12.0,546.0,2.0,230.0,9.0,4.0,2.5,Inferior,2025-03-18T00:00:00.000000,5108.695652173913,Basic,2025,3,1,SqM,"1 Rock Lake Pt NW, Calgary AB T3G 0E9","Rock Lake Point NW, Rocky Ridge, Calgary, Alberta, T3R 1A6, Canada",51.1482196,-114.2355547
4758316,216-100 Auburn Meadows Manor SE,Calgary AB T3M 3H2,Condominium,Good,None,"1, Undgrnd. Stall","",1 Storey,0.17,378000.0,28.0,2680.0,5.0,934.0,5.0,2.0,2.0,Similar,2025-04-03T00:00:00.000000,404.7109207708779,Standard,2025,4,2,SqM,"216-100 Auburn Meadows Manor SE, Calgary AB T3M 3H2","Auburn Meadows Manor SE, Auburn Bay, Calgary, Alberta, T3M 2S1, Canada",50.8930073,-113.9461107
4758316,411-25 Auburn Meadows Ave SE,Calgary AB T3M 2L3,Condominium,Good,None,"2, Undgrnd. Stalls","",Apartment-Low-Rise (,0.89,390000.0,22.0,2680.0,10.0,881.0,7.0,2.0,2.0,Similar,2025-02-13T00:00:00.000000,442.6787741203178,Standard,2025,2,1,SqM,"411-25 Auburn Meadows Ave SE, Calgary AB T3M 2L3","Auburn Meadows Avenue SE, Auburn Bay, Calgary, Alberta, T3M 2G5, Canada",50.8964286,-113.9459829
4758316,105-22 Auburn Bay Link SE,Calgary AB T3M 1Z8,Condominium,Inferior,None,"1, Undgrnd. Stall","",Apartment-Low-Rise (,1.18,344000.0,17.0,2680.0,10.0,875.0,6.0,2.0,2.0,Similar,2025-03-15T00:00:00.000000,393.14285714285717,Basic,2025,3,1,SqM,"105-22 Auburn Bay Link SE, Calgary AB T3M 1Z8","Auburn Bay Link SE, Auburn Bay, Calgary, Alberta, T3M 0Y5, Canada",50.8847436,-113.9539974
4758324,20 Creekside Way,Mill Cove NS B0J 1T0,Detached,Good,Crawl Space,Gravel Driveway,"",1 Storey,9.03,550000.0,55.0,2680.0,4.0,1560.55,5.0,3.0,2.0,Similar,2025-02-21T00:00:00.000000,429.50236966824644,Standard,2025,2,1,SqM,"20 Creekside Way, Mill Cove NS B0J 1T0","20 Creekside Way, Mill Cove NS B0J 1T0",,
4758324,102 Deeridge Rd,Black Point NS B0J 1T0,Detached,Good,Full/Finished,DblBuiltin/PvdDway,"",Bi-Level,1.3,649000.0,1.0,2680.0,1.0,1560.55,6.0,3.0,2.5,Similar,2025-01-10T00:00:00.000000,429.50236966824644,Standard,2025,1,1,SqM,"102 Deeridge Rd, Black Point NS B0J 1T0","102, Deeridge Road, Black Point, Halifax Regional Municipality, Halifax County, Nova Scotia, B0J 1B0, Canada",44.6586904,-63.9816181
4758324,5296 Highway 329,Blandford NS B0J 1T0,Detached,Average,Part Finished,1.5Detached/GravelDwy,"",1 Storey,19.97,620000.0,87.0,2680.0,44.0,1560.55,6.0,3.0,2.5,Superior,2024-10-25T00:00:00.000000,429.50236966824644,Basic,2024,10,4,SqM,"5296 Highway 329, Blandford NS B0J 1T0","5296, Highway 329, Blandford, Chester District Municipality, Lunenburg County, Nova Scotia, B0J 1C0, Canada",44.5052932,-64.1235242
4758529,904-71 Simcoe St,Toronto ON M5J 2S9,High Rise Apartment,Similar,None,"1, Undgrnd. Stall","",1 Storey,0.34,970000.0,64.0,2680.0,36.0,1340.0,5.0,2.0,2.0,Similar,2025-02-04T00:00:00.000000,723.8805970149253,Basic,2025,2,1,SqM,"904-71 Simcoe St, Toronto ON M5J 2S9","904-71 Simcoe St, Toronto ON M5J 2S9",,
4758529,3103-126 Simcoe St,Toronto ON M5H 4E6,High Rise Apartment,Superior,None,"1, Undgrnd. Stall","",1 Storey,0.05,785000.0,27.0,2680.0,12.0,853.0,5.0,2.0,2.0,Similar,2025-03-06T00:00:00.000000,920.2813599062133,Basic,2025,3,1,SqM,"3103-126 Simcoe St, Toronto ON M5H 4E6","3103-126 Simcoe St, Toronto ON M5H 4E6",,
4758529,2805-361 Front St W,Toronto ON M5V 3R5,High Rise Apartment,Superior,None,"1, Undgrnd. Stall","",1 Storey,0.77,920000.0,50.0,2680.0,23.0,1043.0,6.0,2.0,2.0,Similar,2025-02-27T00:00:00.000000,882.0709491850431,Basic,2025,2,1,SqM,"2805-361 Front St W, Toronto ON M5V 3R5","2805-361 Front St W, Toronto ON M5V 3R5",,
4758615,57 Morenz Terr,Kanata ON K2K 3H2,Townhouse,Good,Full Finished/Walkout,Dbl. Att. Gar.,"",Bungalow,0.05,900000.0,2.0,41984014.0,22.0,1470.0,7.0,2.0,2.5,Similar,2024-09-25T00:00:00.000000,612.2448979591836,Standard,2024,9,3,SqFt,"57 Morenz Terr, Kanata ON K2K 3H2","57, Morenz Terrace, Country Club Estates, Kanata, Kanata North, Ottawa, Eastern Ontario, Ontario, K2K 0J6, Canada",45.3161846,-75.9049557
4758615,90 Kinmount Pvt,Kanata ON K2T 1K1,Townhouse,Inferior,"Full, Unfinished",Dbl. Att. Gar.,"",Bungalow,2.2,740000.0,42.0,281724485.0,23.0,1465.0,9.0,2.0,2.5,Similar,2025-03-24T00:00:00.000000,505.1194539249147,Basic,2025,3,1,SqFt,"90 Kinmount Pvt, Kanata ON K2T 1K1","90, Kinmount Private, Kanata, Kanata North, Ottawa, Eastern Ontario, Ontario, K2T 1H7, Canada",45.3143613,-75.9253579
4758615,41 Coulson Crt,Kanata ON K2K 2Z5,Townhouse,Average,Full Finished/Walkout,Dbl. Att. Gar.,"",Bungalow,1.7,790000.0,66.0,281134842.0,25.0,1475.0,8.0,3.0,2.5,Similar,2025-04-04T00:00:00.000000,535.5932203389831,Basic,2025,4,2,SqFt,"41 Coulson Crt, Kanata ON K2K 2Z5","41, Coulson Court, The Pinnacle at Kanata Lakes, Kanata, Kanata North, Ottawa, Eastern Ontario, Ontario, K2T 1B9, Canada",45.3137065,-75.9158088
4758672,1 Partridge Nest Dr,Mineville NS B2Z 1J8,Detached,Inferior,Full/Finished,Sgl. Det. gar.,"",2 Storey,2.86,525000.0,20.0,2680.0,42.0,1560.55,7.0,4.0,1.5,Inferior,2025-01-17T00:00:00.000000,429.50236966824644,Basic,2025,1,1,SqM,"1 Partridge Nest Dr, Mineville NS B2Z 1J8","1, Partridge Nest Drive, Mineville, Halifax Regional Municipality, Halifax County, Nova Scotia, B2Z 1J8, Canada",44.710385,-63.3880135
4758672,6547 Highway 7,Gaetz Brook NS B0J 2L0,Detached,Similar,Crawl Space,"Driveway, Slab","",2 Storey,14.66,420000.0,3.0,2680.0,80.0,1560.55,6.0,3.0,2.0,Inferior,2024-12-13T00:00:00.000000,429.50236966824644,Basic,2024,12,4,SqM,"6547 Highway 7, Gaetz Brook NS B0J 2L0","6547, Highway 7, Gaetz Brook, Halifax Regional Municipality, Halifax County, Nova Scotia, Canada",44.7647753,-63.2168382
4758672,47 Denise Dr,Lake Echo NS B3E 1M5,Detached,Similar,Full/Finished,Sgl. Att. Gar.,"",2 Storey,0.15,585000.0,77.0,2680.0,39.0,1560.55,7.0,4.0,2.0,Similar,2024-09-23T00:00:00.000000,429.50236966824644,Basic,2024,9,3,SqM,"47 Denise Dr, Lake Echo NS B3E 1M5","47, Denise Drive, Lake Echo, Halifax Regional Municipality, Halifax County, Nova Scotia, B3E 1M4, Canada",44.735181,-63.3994006
4759024,275 Lucas Way NW,Calgary AB T3P 0R5,Detached,Similar,Full/Finished,Dbl. Att. Gar.,"",2 Storey,2.7,1038888.0,29.0,390.0,3.0,233.0,7.0,3.0,3.5,Superior,2025-02-18T00:00:00.000000,4458.7467811158795,Basic,2025,2,1,SqM,"275 Lucas Way NW, Calgary AB T3P 0R5","275, Lucas Way NW, Livingston, Calgary, Alberta, T3P 2E3, Canada",51.1891306,-114.0825099
4759024,18 Carrington Rd NW,Calgary AB T3P 1L8,Detached,Inferior,Full/Finished,Dbl. Att. Gar.,"",2 Storey,2.95,1020000.0,12.0,384.0,4.0,248.0,9.0,5.0,2.5,Superior,2025-04-03T00:00:00.000000,4112.903225806452,Basic,2025,4,2,SqM,"18 Carrington Rd NW, Calgary AB T3P 1L8","18, Carrington Road NW, Carrington, Calgary, Alberta, T3P 0C9, Canada",51.1791552,-114.0840685
4759024,85 Sage Hill Cres NW,Calgary AB T3R 1Y2,Detached,Similar,Full/Finished,Dbl. Att. Gar.,"",2 Storey,7.38,1005000.0,26.0,333.0,4.0,224.0,8.0,4.0,2.5,Similar,2025-03-04T00:00:00.000000,4486.607142857143,Basic,2025,3,1,SqM,"85 Sage Hill Cres NW, Calgary AB T3R 1Y2","85, Sage Hill Crescent NW, Sage Hill, Calgary, Alberta, T3R 0H3, Canada",51.1751692,-114.1479299
4759088,5 Willowdale Dr,Musquodoboit Harbour NS B0J 2L0,Detached,Superior,Secondary Suite,Sgl. Att. Gar.,"",Bungalow,9.73,599000.0,47.0,2680.0,8.0,1560.55,5.0,2.0,1.0,Superior,2025-03-29T00:00:00.000000,429.50236966824644,Basic,2025,3,1,SqM,"5 Willowdale Dr, Musquodoboit Harbour NS B0J 2L0","5, Willowdale Drive, Mill Pond, Musquodoboit Harbour, Halifax Regional Municipality, Halifax County, Nova Scotia, B0J 2L0, Canada",44.782234,-63.1661127
4759088,2 Willowdale Dr,Musquodoboit Harbour NS B0J 2L0,Detached,Inferior,Part/Full Finished,Dbl (2 Bay) Det. Gar.,"",3 Level Split,9.68,500000.0,4.0,2680.0,27.0,1560.55,6.0,3.0,2.0,Superior,2025-02-06T00:00:00.000000,429.50236966824644,Basic,2025,2,1,SqM,"2 Willowdale Dr, Musquodoboit Harbour NS B0J 2L0","2, Willowdale Drive, Mill Pond, Musquodoboit Harbour, Halifax Regional Municipality, Halifax County, Nova Scotia, B0J 2L0, Canada",44.7831265,-63.1657632
4759088,137 Myers Point Rd,Head of Jeddore NS B0J 1P0,Detached,Inferior,Full/Finished,1.5 Det. Gar.,"",Bi-Level,0.93,429900.0,2.0,2680.0,30.0,1560.55,5.0,2.0,1.0,Similar,2024-10-18T00:00:00.000000,429.50236966824644,Basic,2024,10,4,SqM,"137 Myers Point Rd, Head of Jeddore NS B0J 1P0","137 Myers Point Rd, Head of Jeddore NS B0J 1P0",,
4759260,46 Highway 3,Hubbards NS B0J 1T0,Detached,Superior,Full/Part Finished,Driveway,"",1 Storey,0.99,375000.0,31.0,2680.0,64.0,1138.0,6.0,3.0,1.0,Similar,2025-03-28T00:00:00.000000,329.52548330404215,Basic,2025,3,1,SqM,"46 Highway 3, Hubbards NS B0J 1T0","46, Highway 3, Hubbards, Chester District Municipality, Lunenburg County, Nova Scotia, B0J 1T0, Canada",44.6374857,-64.0688838
4759260,7730 Highway 329,East River Point NS B0J 1T0,Detached,Similar,Full/Unfinished,Driveway (pvd),"",1 Storey,9.66,348500.0,5.0,2680.0,38.0,1092.0,6.0,3.0,1.0,Similar,2024-12-31T00:00:00.000000,319.13919413919416,Basic,2024,12,4,SqM,"7730 Highway 329, East River Point NS B0J 1T0","7730, Highway 329, East River Point, Chester District Municipality, Lunenburg County, Nova Scotia, B0J 1T0, Canada",44.5798359,-64.1638717
4759260,43 Summer Lane,Boutiliers Point NS B3Z 1V3,Detached,Similar,Crawl Space,Dbl. Det. Gar.,"",1 Storey,9.79,375000.0,70.0,2680.0,65.0,889.0,4.0,2.0,1.0,Similar,2024-10-18T00:00:00.000000,421.822272215973,Basic,2024,10,4,SqM,"43 Summer Lane, Boutiliers Point NS B3Z 1V3","43, Summer Lane, Boutiliers Point, Halifax Regional Municipality, Halifax County, Nova Scotia, B3Z 1V3, Canada",44.65943,-63.9542994
4759498,393 Stoneway Dr,Nepean ON K2G 6G7,Detached,Similar,Full/Finished,Sgl. Att. Gar.,"",2 Storey,0.43,725000.0,71.0,37742841.0,1995.0,1688.0,7.0,3.0,2.5,Similar,2025-03-16T00:00:00.000000,429.50236966824644,Basic,2025,3,1,SqFt,"393 Stoneway Dr, Nepean ON K2G 6G7","393, Stoneway Drive, Barrhaven East, Nepean, Ottawa, Eastern Ontario, Ontario, K2G 6R2, Canada",45.2809455,-75.7201171
4759498,24 Avonhurst Ave,Nepean ON K2J 4K9,Detached,Similar,Full/Finished,Sgl. Att. Gar.,"",2 Storey,0.92,650000.0,78.0,35111.543907,1996.0,1453.0,6.0,3.0,1.5,Similar,2025-03-27T00:00:00.000000,447.3503097040606,Basic,2025,3,1,SqFt,"24 Avonhurst Ave, Nepean ON K2J 4K9","24, Avonhurst Avenue, Barrhaven East, Nepean, Ottawa, Eastern Ontario, Ontario, K2J 5A3, Canada",45.284729,-75.7272455
4759498,53 Armagh Way,Nepean ON K2J 4C1,Detached,Similar,Full/Part Finished,Dbl. Att. Gar.,"",2 Storey,1.9,759500.0,9.0,2680.0,1993.0,1944.0,7.0,3.0,3.5,Similar,2025-04-04T00:00:00.000000,390.68930041152265,Basic,2025,4,2,SqM,"53 Armagh Way, Nepean ON K2J 4C1","53, Armagh Way, Barrhaven East, Nepean, Ottawa, Eastern Ontario, Ontario, K2J 4B8, Canada",45.2923295,-75.733684
4759512,34 Craigmore Dr,Halifax NS B3N 1M2,Detached,Similar,Full/Part Finished,Single Builtin,"",1 Storey,0.43,845000.0,32.0,2680.0,65.0,1560.55,6.0,3.0,1.0,Inferior,2024-12-20T00:00:00.000000,429.50236966824644,Basic,2024,12,4,SqM,"34 Craigmore Dr, Halifax NS B3N 1M2","34, Craigmore Drive, Halifax, Halifax Regional Municipality, Halifax County, Nova Scotia, B3N 1M2, Canada",44.642857,-63.6240232
4759512,4 Piers Ave,Halifax NS B3N 1Z3,Detached,Similar,Full/Finished,Driveway,"",1 Storey,0.28,702000.0,3.0,2680.0,69.0,1560.55,6.0,3.0,1.0,Inferior,2024-12-03T00:00:00.000000,429.50236966824644,Basic,2024,12,4,SqM,"4 Piers Ave, Halifax NS B3N 1Z3","4, Piers Avenue, Fairmount Ridge, Halifax, Halifax Regional Municipality, Halifax County, Nova Scotia, B3N 1Z3, Canada",44.6451012,-63.6324185
4759512,44 Walton Dr,Halifax NS B3N 1X7,Detached,Inferior,Full/Part Finished,Dbl (2 Bay) Builtin,"",1 Storey,0.22,888000.0,7.0,2680.0,72.0,1560.55,8.0,4.0,2.0,Superior,2024-09-21T00:00:00.000000,429.50236966824644,Basic,2024,9,3,SqM,"44 Walton Dr, Halifax NS B3N 1X7","44, Walton Drive, Fairmount Ridge, Halifax, Halifax Regional Municipality, Halifax County, Nova Scotia, B3N 1X7, Canada",44.6421926,-63.6279352
4759561,135 Hawthorne St,Dartmouth NS B2Y 2Z1,Duplex,Superior,Full/Finished,Driveway,"",2 Storey,0.79,951000.0,5.0,2680.0,102.0,1560.55,6.0,3.0,3.0,Superior,2025-03-31T00:00:00.000000,429.50236966824644,Basic,2025,3,1,SqM,"135 Hawthorne St, Dartmouth NS B2Y 2Z1","135, Hawthorne Street, Sullivan's Pond Park, Downtown Dartmouth, Dartmouth, Halifax Regional Municipality, Halifax County, Nova Scotia, B2Y 2Z1, Canada",44.6747039,-63.5638797
4759561,53 Pine St,Dartmouth NS B3A 1X3,Detached,Similar,Full/Finished,Driveway,"",2 Storey,0.89,908000.0,3.0,2680.0,102.0,1560.55,7.0,3.0,1.5,Similar,2025-02-19T00:00:00.000000,429.50236966824644,Basic,2025,2,1,SqM,"53 Pine St, Dartmouth NS B3A 1X3","53, Pine Street, Austinville, Downtown Dartmouth, Dartmouth, Halifax Regional Municipality, Halifax County, Nova Scotia, B3A 1X3, Canada",44.6715363,-63.5698901
4759561,73 Prince Albert Rd,Dartmouth NS B2Y 1M1,Duplex,Inferior,Full/Unfinished,Driveway,"",2 Storey,0.34,782500.0,18.0,2680.0,95.0,1560.55,7.0,3.0,2.0,Similar,2024-05-18T00:00:00.000000,429.50236966824644,Basic,2024,5,2,SqM,"73 Prince Albert Rd, Dartmouth NS B2Y 1M1","73, Prince Albert Road, Cheltonham Court, Downtown Dartmouth Business District, Downtown Dartmouth, Dartmouth, Halifax Regional Municipality, Halifax County, Nova Scotia, B2Y 1M1, Canada",44.6703532,-63.5625797
4759562,1702 Caldwell Rd,Eastern Passage NS B3G 1C6,Semi Detached,Inferior,None,Paved Driveway,"",Bi-Level,0.48,320000.0,38.0,2680.0,38.0,1560.55,6.0,3.0,1.5,Inferior,2025-01-13T00:00:00.000000,429.50236966824644,Basic,2025,1,1,SqM,"1702 Caldwell Rd, Eastern Passage NS B3G 1C6","1702, Caldwell Road, Eastern Passage, Halifax Regional Municipality, Halifax County, Nova Scotia, B3G 1E3, Canada",44.6143385,-63.4754044
4759562,49 Peter Crt,Eastern Passage NS B3G 1S9,Semi Detached,Superior,None,Paved Driveway,"",2 Storey,1.05,370000.0,16.0,2680.0,21.0,1560.55,6.0,3.0,2.5,Similar,2024-10-18T00:00:00.000000,429.50236966824644,Basic,2024,10,4,SqM,"49 Peter Crt, Eastern Passage NS B3G 1S9","49, Peter Court, South East Passage, Eastern Passage, Halifax Regional Municipality, Halifax County, Nova Scotia, B3G 1S9, Canada",44.6044058,-63.4741161
4759562,177 Melrose Cres,Eastern Passage NS B3G 1P2,Semi Detached,Average,None,Paved Driveway,"",2 Storey,0.89,367000.0,2.0,2680.0,28.0,1560.55,6.0,3.0,1.5,Similar,2024-10-16T00:00:00.000000,429.50236966824644,Basic,2024,10,4,SqM,"177 Melrose Cres, Eastern Passage NS B3G 1P2","177, Melrose Crescent, Heritage Hills, Eastern Passage, Halifax Regional Municipality, Halifax County, Nova Scotia, B3G 1P2, Canada",44.6132338,-63.4639693
4759604,23 White Dove Crt,Halifax NS B3N 3G5,Detached,Similar,Full/Finished,Driveway,"",2 Storey,0.16,680000.0,2.0,2680.0,22.0,1560.55,6.0,3.0,2.5,Superior,2025-03-25T00:00:00.000000,429.50236966824644,Basic,2025,3,1,SqM,"23 White Dove Crt, Halifax NS B3N 3G5","23, White Dove Court, Halifax, Halifax Regional Municipality, Halifax County, Nova Scotia, B3N 3G5, Canada",44.6303979,-63.6271909
4759604,45 Ridgestone Crt,Halifax NS B3N 3H8,Detached,Similar,Full/Finished,Driveway,"",2 Storey,0.32,678000.0,91.0,2680.0,18.0,1560.55,8.0,4.0,2.5,Superior,2025-01-24T00:00:00.000000,429.50236966824644,Basic,2025,1,1,SqM,"45 Ridgestone Crt, Halifax NS B3N 3H8","45, Ridgestone Court, Halifax, Halifax Regional Municipality, Halifax County, Nova Scotia, B3N 3H8, Canada",44.6330376,-63.6317251
4759604,94 Tamarack Dr,Halifax NS B3N 3H1,Detached,Superior,Full/Finished,Driveway,"",2 Storey,0.11,600000.0,2.0,2680.0,22.0,1560.55,6.0,3.0,2.5,Inferior,2024-11-16T00:00:00.000000,429.50236966824644,Basic,2024,11,4,SqM,"94 Tamarack Dr, Halifax NS B3N 3H1","94, Tamarack Drive, Halifax, Halifax Regional Municipality, Halifax County, Nova Scotia, B3N 3H1, Canada",44.6312077,-63.6294986
4759846,36 Mount Pleasant Ave,Dartmouth NS B3A 3T4,Detached,Similar,Full/Finished,Sgl. Att. Gar.,"",1.5 Storey,0.49,787000.0,5.0,2680.0,70.0,1560.55,8.0,4.0,1.5,Similar,2025-04-07T00:00:00.000000,429.50236966824644,Basic,2025,4,2,SqM,"36 Mount Pleasant Ave, Dartmouth NS B3A 3T4","36, Mount Pleasant Avenue, Crichton Park, Dartmouth, Halifax Regional Municipality, Halifax County, Nova Scotia, B3A 3T4, Canada",44.6812497,-63.5650989
4759846,2 Lawnsdale Dr,Dartmouth NS B3A 2N2,Detached,Superior,Full/Part Finished,Driveway,"",3 Level Split,0.41,780000.0,6.0,2680.0,71.0,1560.55,8.0,4.0,2.0,Similar,2025-02-17T00:00:00.000000,429.50236966824644,Basic,2025,2,1,SqM,"2 Lawnsdale Dr, Dartmouth NS B3A 2N2","2, Lawnsdale Drive, Crichton Park, Dartmouth, Halifax Regional Municipality, Halifax County, Nova Scotia, B3A 2N2, Canada",44.6809194,-63.5674355
4759846,40 Kingston Cres,Dartmouth NS B3A 2M2,Detached,Inferior,Full/Finished,1.5 Builtin,"",Bi-Level,0.13,708000.0,2.0,2680.0,51.0,1560.55,6.0,3.0,1.5,Similar,2024-11-20T00:00:00.000000,429.50236966824644,Basic,2024,11,4,SqM,"40 Kingston Cres, Dartmouth NS B3A 2M2","40, Kingston Crescent, Crichton Park, Dartmouth, Halifax Regional Municipality, Halifax County, Nova Scotia, B3A 2M2, Canada",44.683414,-63.5706631
4764028,366 Bruyère St,Ottawa ON K1N 5E7,Townhouse,Superior,Full/Unfinished,Driveway surface,"",2 Storey,0.01,1194900.0,8.0,2680.0,1907.0,1582.0,8.0,3.0,2.0,Similar,2025-01-31T00:00:00.000000,755.3097345132743,Basic,2025,1,1,SqM,"366 Bruyère St, Ottawa ON K1N 5E7","366, Bruyère Street, Lowertown, Rideau-Vanier, Ottawa, Eastern Ontario, Ontario, K1N 9G5, Canada",45.4359221,-75.6864872
4764028,2 Brigadier Pvt,Ottawa ON K1N 1E6,Townhouse,Inferior,Full/Finished,Sgl. Att. Gar.,"",3 Storey,0.8,922500.0,12.0,2680.0,1996.0,1823.0,7.0,2.0,2.0,Similar,2024-08-14T00:00:00.000000,506.03400987383435,Basic,2024,8,3,SqM,"2 Brigadier Pvt, Ottawa ON K1N 1E6","2, Brigadier Private, Sandy Hill, Rideau-Vanier, Ottawa, Eastern Ontario, Ontario, K1N 6A2, Canada",45.433337,-75.6767844
4764028,383 Daly Ave,Ottawa ON K1N 6G8,Townhouse,Similar,Full/Finished,Sgl. Att. Crprt.,"",3 Storey,0.91,1247000.0,28.0,24992449.0,1867.0,3336.0,10.0,5.0,3.5,Similar,2025-07-15T00:00:00.000000,373.80095923261393,Basic,2025,7,3,SqFt,"383 Daly Ave, Ottawa ON K1N 6G8","383, Daly Avenue, Sandy Hill, Rideau-Vanier, Ottawa, Eastern Ontario, Ontario, K1N 6K5, Canada",45.4309162,-75.6770331
4766326,1035 Connery Ave,Ottawa ON K1G 2N9,Detached,Similar,Full/Finished,Sgl. Att. Crprt.,"",Bungalow,0.13,550000.0,6.0,531005300.0,1961.0,1109.0,6.0,3.0,2.0,Similar,2025-03-06T00:00:00.000000,495.9422903516682,Basic,2025,3,1,SqFt,"1035 Connery Ave, Ottawa ON K1G 2N9","1035, Connery Avenue, Hawthorne Meadows, Alta Vista, Ottawa, Eastern Ontario, Ontario, K1G 1A9, Canada",45.3949505,-75.6220136
4766326,816 Dickens Ave,Ottawa ON K1G 2X8,Detached,Average,Full/Finished,Driveway surface,"",Bungalow,0.68,615000.0,36.0,437008.0,1960.0,1313.0,6.0,3.0,2.0,Similar,2025-01-10T00:00:00.000000,468.3929931454684,Basic,2025,1,1,SqFt,"816 Dickens Ave, Ottawa ON K1G 2X8","816, Dickens Avenue, Elmvale, Alta Vista, Ottawa, Eastern Ontario, Ontario, K1G 2H7, Canada",45.3935245,-75.6319379
4766326,826 Hamlet Rd,Ottawa ON K1G 1R2,Detached,Superior,Full/Finished,Driveway surface,"",Bungalow,0.91,656000.0,20.0,56905039.0,1956.0,1204.0,6.0,3.0,1.5,Similar,2025-04-14T00:00:00.000000,544.8504983388705,Basic,2025,4,2,SqFt,"826 Hamlet Rd, Ottawa ON K1G 1R2","826, Hamlet Road, Elmvale, Alta Vista, Ottawa, Eastern Ontario, Ontario, K1G 1R7, Canada",45.3994855,-75.6321433
4766430,75 Forestside Cres,Halifax NS B3M 1M5,Condominium,Superior,Part Finished,Lot,"",2 Storey,0.07,433000.0,14.0,2680.0,55.0,1386.0,5.0,4.0,1.5,Similar,2025-03-06T00:00:00.000000,312.4098124098124,Basic,2025,3,1,SqM,"75 Forestside Cres, Halifax NS B3M 1M5","75, Forestside Crescent, Fairview Estates, Halifax, Halifax Regional Municipality, Halifax County, Nova Scotia, B3M 1M5, Canada",44.6579733,-63.649257
4766430,92 Forestside Cres,Halifax NS B3M 1M4,Condominium,Inferior,Full/Part Finished,Lot,"",2 Storey,0.01,405000.0,4.0,2680.0,55.0,1386.0,5.0,3.0,1.5,Similar,2025-02-26T00:00:00.000000,292.2077922077922,Basic,2025,2,1,SqM,"92 Forestside Cres, Halifax NS B3M 1M4","92, Forestside Crescent, Fairview Estates, Halifax, Halifax Regional Municipality, Halifax County, Nova Scotia, B3M 1M4, Canada",44.6581663,-63.6499884
4766430,238 Willett St,Halifax NS B3M 3C8,Condominium,Superior,Full/Part Finished,Lot,"",2 Storey,0.3,450000.0,5.0,2680.0,51.0,1366.0,6.0,4.0,1.5,Similar,2024-07-18T00:00:00.000000,329.4289897510981,Basic,2024,7,3,SqM,"238 Willett St, Halifax NS B3M 3C8","238, Willett Street, Sheffield, Halifax, Halifax Regional Municipality, Halifax County, Nova Scotia, B3M 3C8, Canada",44.6572969,-63.6535595
4767066,1112-730 2 Ave SW,Calgary AB T2P 1R8,High Rise Apartment,Similar,No Basement,Street,"",1 Storey,0.0,405000.0,38.0,2680.0,1.0,512.09,5.0,1.0,2.5,Inferior,2025-03-28T00:00:00.000000,790.876603722002,Basic,2025,3,1,SqM,"1112-730 2 Ave SW, Calgary AB T2P 1R8","1112-730 2 Ave SW, Calgary AB T2P 1R8",,
4767066,2104-930 16 Ave SW,Calgary AB T2R 1C2,High Rise Apartment,Inferior,No Basement,"1, Undgrnd. Stall","",1 Storey,1.57,412500.0,21.0,2680.0,6.0,552.87,5.0,1.0,2.5,Superior,2025-04-09T00:00:00.000000,746.1066796896196,Basic,2025,4,2,SqM,"2104-930 16 Ave SW, Calgary AB T2R 1C2","2104-930 16 Ave SW, Calgary AB T2R 1C2",,
4767066,1606-108 Waterfront Crt SW,Calgary AB T2P 1K7,High Rise Apartment,Inferior,No Basement,"1, Undgrnd. Stall","",1 Storey,0.83,385000.0,27.0,2680.0,7.0,558.27,5.0,1.0,2.5,Similar,2025-02-27T00:00:00.000000,689.6304655453455,Basic,2025,2,1,SqM,"1606-108 Waterfront Crt SW, Calgary AB T2P 1K7","1606-108 Waterfront Crt SW, Calgary AB T2P 1K7",,
4768014,111 Damselfly Way,Nepean ON K2J 6C4,Detached,Similar,"Full, Unfinished",Sgl. Att. Gar.,"",2 Storey,0.51,750000.0,6.0,2680.0,2016.0,1919.0,7.0,3.0,2.5,Similar,2025-03-05T00:00:00.000000,390.8285565398645,Basic,2025,3,1,SqM,"111 Damselfly Way, Nepean ON K2J 6C4","111, Damselfly Way, Barrhaven West, Nepean, Ottawa, Eastern Ontario, Ontario, K2J 7B8, Canada",45.2427019,-75.7305891
4768014,328 Appalachian Cir,Nepean ON K2J 6X3,Detached,Similar,Full/Part Finished,Sgl. Att. Gar.,"",2 Storey,1.22,715000.0,49.0,3569.88244,2023.0,1746.0,6.0,3.0,2.5,Similar,2025-02-26T00:00:00.000000,409.5074455899198,Basic,2025,2,1,SqM,"328 Appalachian Cir, Nepean ON K2J 6X3","328, Appalachian Circle, Barrhaven West, Nepean, Ottawa, Eastern Ontario, Ontario, K2J 6S4, Canada",45.2357629,-75.7482993
4768014,2402 Regatta Ave,Nepean ON K2J 0T8,Detached,Inferior,Full/Finished,Sgl. Att. Gar.,"",2 Storey,1.52,779000.0,32.0,2680.0,2009.0,1993.0,6.0,3.0,3.5,Similar,2025-04-14T00:00:00.000000,390.8680381334671,Basic,2025,4,2,SqM,"2402 Regatta Ave, Nepean ON K2J 0T8","2402, Regatta Avenue, Barrhaven West, Nepean, Ottawa, Eastern Ontario, Ontario, K2J 5W9, Canada",45.2515875,-75.7384638
4768037,226 Kent St,Port Colborne ON L3K 3A1,Duplex,Similar,Full/Unfinished,Dbl. Det. Gar.,"",2.5 Storey,11.77,573000.0,45.0,401204800.0,105.0,2185.0,9.0,4.0,2.0,Similar,2025-02-24T00:00:00.000000,262.24256292906176,Basic,2025,2,1,SqFt,"226 Kent St, Port Colborne ON L3K 3A1","226, Kent Street, Port Colborne, Niagara Region, Golden Horseshoe, Ontario, L3K 3G5, Canada",42.8837931,-79.2586021
4768037,168 Windsor St,Welland ON L3C 6T6,Duplex,Superior,Adjusted above in LFA,Driveway,"",Split Level,1.56,570000.0,77.0,301103200.0,39.0,2054.0,10.0,5.0,2.0,Similar,2024-12-12T00:00:00.000000,277.5073028237585,Basic,2024,12,4,SqFt,"168 Windsor St, Welland ON L3C 6T6","168, Windsor Street, Welland, Niagara Region, Golden Horseshoe, Ontario, L3C 5E3, Canada",42.9816356,-79.2653738
4768037,1105 Haist Street,Pelham ON L0S 1E2,Duplex,Similar,Full/Unfinished,Driveway,"",2 Storey,5.44,645000.0,24.0,7516012000.0,97.0,1962.0,9.0,4.0,2.0,Superior,2024-12-09T00:00:00.000000,328.7461773700306,Basic,2024,12,4,SqFt,"1105 Haist Street, Pelham ON L0S 1E2","1105, Haist Street, Fonthill, Pelham, Niagara Region, Golden Horseshoe, Ontario, L3C 1Y5, Canada",43.0271983,-79.2946287
4763606,21-4552 Portage Rd,Niagara Falls ON L2E 0B8,Townhouse,Inferior,Full/Unfinished,2 Car Built-in,"",2 Storey,19.68,655000.0,111.0,2680.0,2024.0,1600.0,8.0,4.0,2.5,Superior,2025-03-26T00:00:00.000000,409.375,Basic,2025,3,1,SqM,"21-4552 Portage Rd, Niagara Falls ON L2E 0B8","21-4552 Portage Rd, Niagara Falls ON L2E 0B8",,
4763606,1-150 Broadway,Welland ON L3C 0J2,Townhouse,Inferior,Full; part finished/3pc,1 Car Detached,"",2 Storey,1.06,520000.0,64.0,2680.0,2023.0,1400.0,6.0,3.0,2.5,Similar,2025-04-03T00:00:00.000000,371.42857142857144,Basic,2025,4,2,SqM,"1-150 Broadway, Welland ON L3C 0J2","Broadway, Welland, Niagara Region, Golden Horseshoe, Ontario, L3C 2J8, Canada",42.9745875,-79.2645104
4763606,14-96 Welland Rd,Fonthill ON L0S 1E4,Townhouse,Superior,Full/Unfinished,1 Car Detached,"",2 Storey,6.03,715000.0,58.0,2680.0,4.0,1675.0,6.0,3.0,2.5,Superior,2025-04-16T00:00:00.000000,426.86567164179104,Basic,2025,4,2,SqM,"14-96 Welland Rd, Fonthill ON L0S 1E4","Welland Road, Fonthill, Pelham, Niagara Region, Golden Horseshoe, Ontario, L3C 1Y5, Canada",43.0221871,-79.2878344
4763898,9 Chittick Ave,Dartmouth NS B2Y 3J7,Detached,Superior,Full/Part Finished,Driveway,"",1 Storey,1.12,547500.0,4.0,2680.0,70.0,1560.55,6.0,3.0,1.0,Superior,2025-02-28T00:00:00.000000,429.50236966824644,Basic,2025,2,1,SqM,"9 Chittick Ave, Dartmouth NS B2Y 3J7","Chittick Avenue, Penhorn, Grahams Grove, Dartmouth, Halifax Regional Municipality, Halifax County, Nova Scotia, B2Y 3J9, Canada",44.6790385,-63.5433915
4763898,27 Cranston Ave,Dartmouth NS B2Y 3G1,Detached,Inferior,Full/Unfinished,Sn. Bin. Gar. (-),"",1 Storey,0.67,441200.0,7.0,2680.0,59.0,1560.55,6.0,3.0,1.0,Superior,2025-01-31T00:00:00.000000,429.50236966824644,Basic,2025,1,1,SqM,"27 Cranston Ave, Dartmouth NS B2Y 3G1","27, Cranston Avenue, Wyndholme Estates, Grahams Grove, Dartmouth, Halifax Regional Municipality, Halifax County, Nova Scotia, B2Y 3G1, Canada",44.6764728,-63.5512704
4763898,13 Chestnut Lane,Dartmouth NS B2Y 3X1,Detached,Superior,Full/Unfinished,Driveway (gravel),"",1.5 Storey,0.67,431000.0,4.0,2680.0,79.0,1560.55,5.0,3.0,1.0,Inferior,2024-11-08T00:00:00.000000,429.50236966824644,Basic,2024,11,4,SqM,"13 Chestnut Lane, Dartmouth NS B2Y 3X1","13, Chestnut Lane, Green Village, Dartmouth, Halifax Regional Municipality, Halifax County, Nova Scotia, B2Y 3X1, Canada",44.6681983,-63.5418237
4765154,1131 Wintergreen Cres,Kingston ON K7P 2G3,Detached,Average,Full/Finished,Double Attached,"",2 Storey,0.45,757750.0,24.0,601106600.0,36.0,2617.0,20.0,4.0,3.5,Superior,2025-01-30T00:00:00.000000,289.5491020252197,Standard,2025,1,1,SqFt,"1131 Wintergreen Cres, Kingston ON K7P 2G3","1131, Wintergreen Crescent, Cataraqui Woods, Kingston, Eastern Ontario, Ontario, K7P 2G6, Canada",44.2640469,-76.5775924
4765154,829 Larchwood Cres,Kingston ON K7P 2P8,Detached,Inferior,Part / Finished,Single Attached,"",Split Level,0.16,585000.0,36.0,2680.0,36.0,1732.0,9.0,3.0,1.5,Superior,2025-03-05T00:00:00.000000,337.7598152424942,Basic,2025,3,1,SqM,"829 Larchwood Cres, Kingston ON K7P 2P8","829, Larchwood Crescent, Cataraqui Woods, Kingston, Eastern Ontario, Ontario, K7P 2G6, Canada",44.2659071,-76.5821591
4765154,768 Cataraqui Woods Dr,Kingston ON K7P 2R1,Detached,Inferior,Full/Part Finished,No Garage,"",2 Storey,0.5,544000.0,4.0,2680.0,36.0,1221.0,10.0,3.0,1.5,Similar,2025-03-31T00:00:00.000000,445.5364455364455,Basic,2025,3,1,SqM,"768 Cataraqui Woods Dr, Kingston ON K7P 2R1","768, Cataraqui Woods Drive, Cataraqui Woods, Kingston, Eastern Ontario, Ontario, K7P 2G6, Canada",44.2674256,-76.5774706
4765502,23805 Merlin Rd,Tilbury ON N0P 2L0,Detached,Inferior,Crawl Space,Sgl. Det. gar.,"",1 Storey,5.07,354500.0,29.0,80104.0,36.0,1765.0,9.0,3.0,1.0,Similar,2025-02-20T00:00:00.000000,200.8498583569405,Basic,2025,2,1,SqFt,"23805 Merlin Rd, Tilbury ON N0P 2L0","23805 Merlin Rd, Tilbury ON N0P 2L0",,
4765502,6129 Seventh Line W,Merlin ON N0P 1W0,Detached,Superior,Crawl Space,Driveway,"",1.5 Storey,10.16,492500.0,40.0,132185.0,90.0,1864.0,12.0,3.0,2.5,Similar,2025-01-22T00:00:00.000000,264.2167381974249,Basic,2025,1,1,SqFt,"6129 Seventh Line W, Merlin ON N0P 1W0","6129 Seventh Line W, Merlin ON N0P 1W0",,
4765502,6673 Riverview Line,Chatham ON N7M 5T1,Detached,Superior,Part/Unfinished,Driveway,"",2 Storey,2.44,490000.0,47.0,110.0,115.0,1700.0,8.0,3.0,1.5,Superior,2024-12-16T00:00:00.000000,288.2352941176471,Basic,2024,12,4,SqM,"6673 Riverview Line, Chatham ON N7M 5T1","6673 Riverview Line, Chatham ON N7M 5T1",,
4765899,1729 Reginald Bart Dr,Kingston ON K7K 0E8,Detached,Average,Part/Full Finished,Single Attached,"",2 Storey,0.12,640000.0,46.0,32.8983214,11.0,1478.0,12.0,3.0,1.5,Similar,2024-10-21T00:00:00.000000,433.01759133964816,Basic,2024,10,4,SqM,"1729 Reginald Bart Dr, Kingston ON K7K 0E8","1729, Reginald Bart Drive, Greenwood Park West, Kingston, Eastern Ontario, Ontario, K7K 0E8, Canada",44.2749175,-76.4470537
4765899,67 Schooner Dr,Kingston ON K7K 7K1,Detached,Superior,Full/Finished,Single Attached,"",2 Storey,0.42,717000.0,11.0,35122.64291,23.0,1629.0,15.0,3.0,3.5,Similar,2025-03-31T00:00:00.000000,440.1473296500921,Basic,2025,3,1,SqFt,"67 Schooner Dr, Kingston ON K7K 7K1","67, Schooner Drive, Greenwood Park West, Kingston, Eastern Ontario, Ontario, K7K 7K1, Canada",44.272779,-76.4495505
4765899,63 Schooner Dr,Kingston ON K7K 7K1,Detached,Average,Full/Finished,Single Attached,"",1 Storey,0.44,650000.0,8.0,35122.64291,23.0,1079.0,13.0,2.0,3.0,Similar,2025-02-13T00:00:00.000000,602.4096385542168,Basic,2025,2,1,SqFt,"63 Schooner Dr, Kingston ON K7K 7K1","63, Schooner Drive, Greenwood Park West, Kingston, Eastern Ontario, Ontario, K7K 7K1, Canada",44.272757,-76.4498165
4765948,275 Division St,Kingston ON K7K 3Z7,Duplex,Superior,Cellar,Sgl. Det. gar.,"",2 Storey,0.87,675000.0,76.0,20951900.0,100.0,1560.55,8.0,4.0,2.0,Similar,2025-02-12T00:00:00.000000,429.50236966824644,Basic,2025,2,1,SqFt,"275 Division St, Kingston ON K7K 3Z7","275, Division Street, University District, Kingston, Eastern Ontario, Ontario, K7K 1M8, Canada",44.2365764,-76.4936844
4765948,1-21 Cherry St,Kingston ON K7K 3W2,Triplex,Superior,Included Above,No Garage,"",2 Storey,0.72,764900.0,19.0,45853825.0,70.0,1560.55,9.0,5.0,3.0,Similar,2024-10-29T00:00:00.000000,429.50236966824644,Basic,2024,10,4,SqFt,"1-21 Cherry St, Kingston ON K7K 3W2","Cherry Street, Kingston, Eastern Ontario, Ontario, K7K 3P5, Canada",44.2388539,-76.4923216
4765948,46 York St,Kingston ON K7K 1P5,Duplex,Average,Included Above,Sgl. Det. gar.,"",1 Storey,0.69,617500.0,2.0,36923312.0,40.0,1560.55,8.0,4.0,2.0,Similar,2025-01-18T00:00:00.000000,429.50236966824644,Basic,2025,1,1,SqFt,"46 York St, Kingston ON K7K 1P5","46, York Street, University District, Kingston, Eastern Ontario, Ontario, K7K 3T1, Canada",44.2360395,-76.491059
4768126,550 Paine Ave,Kanata ON K2T 0K7,Townhouse,Similar,Full/Finished,Sgl. Att. Gar.,"",2 Storey,0.24,650000.0,7.0,2680.0,2016.0,1570.0,6.0,3.0,2.5,Similar,2025-02-21T00:00:00.000000,414.0127388535032,Basic,2025,2,1,SqM,"550 Paine Ave, Kanata ON K2T 0K7","550, Paine Avenue, Arcadia, Kanata, Kanata North, Ottawa, Eastern Ontario, Ontario, K2T 0K5, Canada",45.305293,-75.9368375
4768126,524 Paine Ave,Kanata ON K2T 0K7,Townhouse,Similar,Full/Finished,Sgl. Att. Gar.,"",2 Storey,0.33,676000.0,27.0,2680.0,2015.0,1869.0,8.0,5.0,2.5,Similar,2025-02-27T00:00:00.000000,361.6907437132156,Basic,2025,2,1,SqM,"524 Paine Ave, Kanata ON K2T 0K7","524, Paine Avenue, Arcadia, Kanata, Kanata North, Ottawa, Eastern Ontario, Ontario, K2T 0K5, Canada",45.304479,-75.9382153
4768126,164 Calvington Ave,Kanata ON K2T 0H8,Townhouse,Similar,Full/Finished,Sgl. Att. Gar.,"",2 Storey,0.11,706000.0,2.0,2680.0,2013.0,1830.0,7.0,4.0,2.5,Similar,2025-03-26T00:00:00.000000,385.79234972677597,Basic,2025,3,1,SqM,"164 Calvington Ave, Kanata ON K2T 0H8","164, Calvington Avenue, Arcadia, Kanata, Kanata North, Ottawa, Eastern Ontario, Ontario, K2T 0K5, Canada",45.304012,-75.9350403
4768528,965 Linaria Walk,Orléans ON K4A 0H9,Townhouse,Inferior,Full/Finished,Sgl. Att. Gar.,"",2 Storey,0.52,627500.0,14.0,2680.0,2009.0,1551.0,6.0,3.0,2.5,Similar,2025-03-11T00:00:00.000000,404.5776918117344,Basic,2025,3,1,SqM,"965 Linaria Walk, Orléans ON K4A 0H9","965, Linaria Walk, Notting Gate, Orléans, Orléans South-Navan, Ottawa, Eastern Ontario, Ontario, K4A 0G4, Canada",45.462448,-75.4526597
4768528,2282 Descartes St,Orléans ON K4A 0W4,Townhouse,Inferior,Full/Finished,Sgl. Att. Gar.,"",2 Storey,1.31,700994.0,8.0,23.594843,2013.0,1873.0,6.0,3.0,2.5,Similar,2025-01-23T00:00:00.000000,374.26268019220504,Basic,2025,1,1,SqM,"2282 Descartes St, Orléans ON K4A 0W4","2282, Descartes Street, Notting Gate, Orléans, Orléans South-Navan, Ottawa, Eastern Ontario, Ontario, K4A 0K5, Canada",45.4565945,-75.4627802
4768528,958 Socca Cres,Orléans ON K4A 5M1,Townhouse,Similar,Full/Finished,Sgl. Att. Gar.,"",2 Storey,0.27,705000.0,15.0,22.783582,2022.0,1932.0,7.0,4.0,2.5,Similar,2025-03-26T00:00:00.000000,364.90683229813664,Basic,2025,3,1,SqM,"958 Socca Cres, Orléans ON K4A 5M1","958, Socca Crescent, Notting Gate, Orléans, Orléans South-Navan, Ottawa, Eastern Ontario, Ontario, K4A 0G4, Canada",45.464877,-75.4529312
4769110,3518 John Parr Dr,Halifax NS B3K 5V2,Condominium,Average,None,No Garage,"",2 Storey,0.99,434500.0,4.0,2680.0,36.0,1150.0,6.0,3.0,2.0,Similar,2025-01-17T00:00:00.000000,377.82608695652175,Basic,2025,1,1,SqM,"3518 John Parr Dr, Halifax NS B3K 5V2","3518, John Parr Drive, Convoy Place, Halifax, Halifax Regional Municipality, Halifax County, Nova Scotia, B3K 5V2, Canada",44.663475,-63.6119955
4769110,5617 Carriageway Cres,Halifax NS B3K 5K4,Condominium,Average,Full/Part Finished,Sgl. Att. Gar.,"",2 Storey,0.14,465000.0,7.0,2680.0,47.0,1216.0,6.0,3.0,2.0,Similar,2025-03-28T00:00:00.000000,382.4013157894737,Basic,2025,3,1,SqM,"5617 Carriageway Cres, Halifax NS B3K 5K4","5617, Carriageway Crescent, Convoy Place, Halifax, Halifax Regional Municipality, Halifax County, Nova Scotia, B3K 5K4, Canada",44.6713958,-63.6132611
4769110,3882 Novalea Dr,Halifax NS B3K 3G6,Condominium,Average,Full/Part Finished,Sgl. Att. Gar.,"",2 Storey,0.06,434523.0,3.0,2680.0,51.0,1500.0,6.0,3.0,2.0,Inferior,2025-04-14T00:00:00.000000,289.682,Basic,2025,4,2,SqM,"3882 Novalea Dr, Halifax NS B3K 3G6","3882, Novalea Drive, Convoy Place, Halifax, Halifax Regional Municipality, Halifax County, Nova Scotia, B3K 3G6, Canada",44.6727208,-63.6144325
4769269,253 Queen Street,Atwood ON N0G 1B0,Detached,Average,Full/Finished,Trpl. Att. Gar.,"",Bungalow,14.96,825000.0,10.0,0.49,2011.0,1567.0,6.0,2.0,2.5,Similar,2025-04-06T00:00:00.000000,526.4837268666241,Standard,2025,4,2,Acre,"253 Queen Street, Atwood ON N0G 1B0","Queen Street, Atwood, North Perth, Perth County, Ontario, N0G 1B0, Canada",43.6730687,-81.0179003
4769269,84343 Kent Line,Brussels ON N0G 1H0,Detached,Average,Full/Finished,Dbl. Att. Gar.,"",Bungalow,0.06,1128000.0,26.0,1.22,2021.0,1769.0,6.0,2.0,2.5,Similar,2025-04-01T00:00:00.000000,637.648388920294,Standard,2025,4,2,SqM,"84343 Kent Line, Brussels ON N0G 1H0","84343 Kent Line, Brussels ON N0G 1H0",,
4769269,234 Henry Street,Mitchell ON N0K 1N0,Detached,Average,Full/Unfinished,Dbl. Att. Gar.,"",Bungalow,26.43,825720.0,36.0,0.15,2024.0,1680.0,6.0,3.0,2.5,Similar,2024-12-18T00:00:00.000000,491.5,Standard,2024,12,4,Acre,"234 Henry Street, Mitchell ON N0K 1N0","Henry Street, Mitchell, West Perth, Perth County, Southwestern Ontario, Ontario, N0K 1N0, Canada",43.4724925,-81.1896355
4770115,189 Blackhorse Dr,Kemptville ON K0G 1J0,Detached,Inferior,Full/Finished,Dbl. Att. Gar.,"",Bungalow,0.39,925000.0,28.0,42.651104691,2021.0,1814.0,6.0,2.0,3.0,Similar,2024-10-04T00:00:00.000000,509.922822491731,Basic,2024,10,4,SqM,"189 Blackhorse Dr, Kemptville ON K0G 1J0","Blackhorse Drive, Equinelle, Kemptville, North Grenville, Leeds and Grenville Counties, Eastern Ontario, Ontario, K0G 1J0, Canada",45.0351352,-75.6840057
4770115,116 Blackhorse Dr,Kemptville ON K0G 1J0,Detached,Inferior,Full/Part Finished,Dbl. Att. Gar.,"",Bungalow,0.64,1100000.0,28.0,2680.0,2020.0,1523.0,6.0,2.0,3.0,Similar,2024-11-04T00:00:00.000000,722.2586999343401,Basic,2024,11,4,SqM,"116 Blackhorse Dr, Kemptville ON K0G 1J0","Blackhorse Drive, Equinelle, Kemptville, North Grenville, Leeds and Grenville Counties, Eastern Ontario, Ontario, K0G 1J0, Canada",45.0351352,-75.6840057
4770115,13 Tilly Lane,Oxford Mills ON K0G 1S0,Detached,Similar,Full/Finished,Dbl. Att. Gar.,"",Bungalow,7.73,1250000.0,36.0,2680.0,2022.0,1988.0,8.0,4.0,3.0,Similar,2025-04-30T00:00:00.000000,628.7726358148893,Basic,2025,4,2,SqM,"13 Tilly Lane, Oxford Mills ON K0G 1S0","Tilly Lane, Oxford Mills, North Grenville, Leeds and Grenville Counties, Eastern Ontario, Ontario, K0G 1S0, Canada",44.9627836,-75.683174
4770310,261 Arthur St,Gananoque ON K7G 1B3,Detached,Average,Cellar,No Garage,"",2 Storey,0.22,640000.0,112.0,601207200.0,100.0,1590.0,12.0,2.0,1.5,Similar,2024-11-29T00:00:00.000000,402.5157232704403,Standard,2024,11,4,SqFt,"261 Arthur St, Gananoque ON K7G 1B3","261, Arthur Street, Gananoque, Eastern Ontario, Ontario, K7G 1T1, Canada",44.3288051,-76.1561594
4770310,198 South St,Gananoque ON K7G 1A2,Detached,Inferior,Cellar,Single Detached,"",2.5 Storey,0.03,550000.0,8.0,631237749.0,100.0,3440.0,14.0,4.0,5.0,Similar,2025-04-10T00:00:00.000000,159.88372093023256,Basic,2025,4,2,SqFt,"198 South St, Gananoque ON K7G 1A2","198, South Street, Gananoque, Eastern Ontario, Ontario, K7G 2A8, Canada",44.3266071,-76.155724
4770310,260 John St,Gananoque ON K7G 1A7,Detached,Inferior,Crawl Space,No Garage,"",2 Storey,0.2,600000.0,17.0,6021012600.0,10010.0,2336.0,12.0,4.0,2.0,Similar,2024-06-13T00:00:00.000000,256.8493150684931,Basic,2024,6,2,SqFt,"260 John St, Gananoque ON K7G 1A7","260, John Street, Gananoque, Eastern Ontario, Ontario, K7G 1T1, Canada",44.3281258,-76.1552229
4771097,202-550 Talbot Pl,Gananoque ON K7G 3C6,Condominium,Inferior,Condo Common,1 Space,"",1 Storey,0.06,237000.0,134.0,2680.0,35.0,819.0,5.0,2.0,1.0,Similar,2024-12-12T00:00:00.000000,289.3772893772894,Basic,2024,12,4,SqM,"202-550 Talbot Pl, Gananoque ON K7G 3C6","202-550 Talbot Pl, Gananoque ON K7G 3C6",,
4771097,404-610 William St S,Gananoque ON K7G 3A4,Condominium,Average,Condo Common,1 Space,"",1 Storey,1.02,325000.0,36.0,2680.0,45.0,594.0,7.0,1.0,1.0,Superior,2025-02-08T00:00:00.000000,547.1380471380471,Basic,2025,2,1,SqM,"404-610 William St S, Gananoque ON K7G 3A4","404-610 William St S, Gananoque ON K7G 3A4",,
4771097,305-540 Talbot Pl,Gananoque ON K7G 3C6,Condominium,Average,Condo Common,1 Space,"",1 Storey,0.0,255000.0,26.0,2680.0,35.0,819.0,6.0,2.0,1.0,Similar,2024-07-23T00:00:00.000000,311.35531135531136,Basic,2024,7,3,SqM,"305-540 Talbot Pl, Gananoque ON K7G 3C6","305-540 Talbot Pl, Gananoque ON K7G 3C6",,
4771029,286 Taravista Dr NE,Calgary AB T3J 5L8,Detached,Superior,Full/Finished,Dbl. Att. Gar.,"",2 Storey,2.37,827500.0,33.0,355.0,19.0,2537.4,9.0,4.0,3.0,Inferior,2025-02-25T00:00:00.000000,326.12122645227396,Basic,2025,2,1,SqM,"286 Taravista Dr NE, Calgary AB T3J 5L8","286, Taravista Drive NE, Taradale, Calgary, Alberta, T3J 4L1, Canada",51.1209003,-113.9342202
4771029,133 Saddlelake Grove NE,Calgary AB T3J 0N8,Detached,Inferior,Full/Finished,Dbl. Att. Gar.,"",2 Storey,2.94,830000.0,35.0,369.0,12.0,2811.0,9.0,4.0,2.5,Superior,2025-02-28T00:00:00.000000,295.2685876912131,Basic,2025,2,1,SqM,"133 Saddlelake Grove NE, Calgary AB T3J 0N8","133, Saddlelake Grove NE, Saddle Ridge, Calgary, Alberta, T3J 0W8, Canada",51.1273662,-113.9333686
4771029,63 Martinview Cres NE,Calgary AB T3J 2S5,Detached,Similar,Full/Finished,Dbl. Att. Gar.,"",2 Storey,0.49,750000.0,20.0,489.0,34.0,2336.52,9.0,5.0,2.5,Inferior,2024-12-19T00:00:00.000000,320.99019053977713,Basic,2024,12,4,SqM,"63 Martinview Cres NE, Calgary AB T3J 2S5","63, Martinview Crescent NE, Martindale, Calgary, Alberta, T3J 3G4, Canada",51.1109299,-113.959939
4771641,116 Ambleside Cres NW,Calgary AB T3P 1S6,Detached,Superior,Full/Unfinished,Dbl. Att. Gar.,"",3 Storey,2.41,942000.0,55.0,343.0,1.0,3068.75,9.0,5.0,4.5,Inferior,2025-01-07T00:00:00.000000,306.9653767820774,Basic,2025,1,1,SqM,"116 Ambleside Cres NW, Calgary AB T3P 1S6","Ambleside Crescent NW, Ambleton, Moraine, Calgary, Alberta, T3P 0J9, Canada",51.1838143,-114.1083446
4771641,1134 Alpine Ave SW,Calgary AB T2Y 0T2,Detached,Superior,Full/Unfinished,Dbl. Det. Gar.,"",3 Storey,31.28,840000.0,17.0,240.0,2.0,2206.09,6.0,3.0,2.5,Similar,2025-01-27T00:00:00.000000,380.76415740065,Basic,2025,1,1,SqM,"1134 Alpine Ave SW, Calgary AB T2Y 0T2","1134, Alpine Avenue SW, Alpine Park, Calgary, Alberta, T2Y 0R6, Canada",50.9174373,-114.1555676
4771641,21 Panora St NW,Calgary AB T3K 0R6,Detached,Inferior,Full/Unfinished,Off Street,"",3 Storey,2.86,635000.0,59.0,333.0,14.0,1998.7,8.0,4.0,3.5,Similar,2025-03-07T00:00:00.000000,317.70650923100015,Basic,2025,3,1,SqM,"21 Panora St NW, Calgary AB T3K 0R6","21, Panora Street NW, Panorama Hills, Calgary, Alberta, T3K 0S6, Canada",51.170427,-114.0940136
4772017,6248 Taralea Pk NE,Calgary AB T3J 5A8,Detached,Superior,Developed/2F,Dbl. Att. Gar.,"",4 Level Split,0.31,647500.0,50.0,416.0,22.0,1259.0,6.0,3.0,2.5,Inferior,2025-03-25T00:00:00.000000,514.2970611596505,Basic,2025,3,1,SqM,"6248 Taralea Pk NE, Calgary AB T3J 5A8","6248, Taralea Park NE, Taradale, Calgary, Alberta, T3J 3E6, Canada",51.1160603,-113.9417373
4772017,91 Taralea Cres NE,Calgary AB T3J 5A8,Detached,Superior,Developed/1F,Dbl. Att. Gar.,"",Bi-Level,0.43,565000.0,123.0,494.0,21.0,1120.0,5.0,1.0,1.5,Inferior,2025-02-18T00:00:00.000000,504.4642857142857,Basic,2025,2,1,SqM,"91 Taralea Cres NE, Calgary AB T3J 5A8","91, Taralea Crescent NE, Taradale, Calgary, Alberta, T3J 3E6, Canada",51.1145171,-113.9411279
4772017,232 Taracove Rd NE,Calgary AB T3J 5A2,Detached,Average,Developed/1F,Gravel pad,"",Bi-Level,0.23,575000.0,15.0,309.0,22.0,1189.04,6.0,3.0,2.5,Inferior,2025-04-25T00:00:00.000000,483.58339500773735,Basic,2025,4,2,SqM,"232 Taracove Rd NE, Calgary AB T3J 5A2","232, Taracove Road NE, Taradale, Calgary, Alberta, T3J 4L1, Canada",51.1194031,-113.9360796
4772152,130 Hidden Ranch Rd NW,Calgary AB T3A 5S6,Detached,Good,Full/Finished,Dbl. Att. Gar.,"",2 Storey,0.21,668500.0,56.0,2680.0,29.0,1811.0,7.0,3.0,2.5,Superior,2025-04-25T00:00:00.000000,369.1330756488128,Standard,2025,4,2,SqM,"130 Hidden Ranch Rd NW, Calgary AB T3A 5S6","Hidden Ranch Road NW, Hidden Valley, Calgary, Alberta, T3A 5R3, Canada",51.1472225,-114.1253637
4772152,193 Hidden Ranch Hill NW,Calgary AB T3A 5X6,Detached,Good,"Full, Walkout",Dbl. Att. Gar.,"",2 Storey,0.17,650000.0,29.0,2680.0,27.0,1554.0,6.0,3.0,2.5,Superior,2025-02-21T00:00:00.000000,418.2754182754183,Standard,2025,2,1,SqM,"193 Hidden Ranch Hill NW, Calgary AB T3A 5X6","Hidden Ranch Hill NW, Hidden Valley, Calgary, Alberta, T3A 5X6, Canada",51.1472311,-114.1271898
4772152,10673 Hidden Valley Dr NW,Calgary AB T3A 5V3,Detached,Excellent,Full/Finished,Dbl. Att. Gar.,"",2 Storey,1.69,700000.0,4.0,2680.0,28.0,1548.0,7.0,3.0,2.5,Similar,2025-02-03T00:00:00.000000,452.1963824289406,Premium,2025,2,1,SqM,"10673 Hidden Valley Dr NW, Calgary AB T3A 5V3","Hidden Valley Drive NW, Hidden Valley, Calgary, Alberta, T3A 5G2, Canada",51.1463299,-114.1060526
4775892,42 Sandringham Crt,Brampton ON L6T 3Z3,Townhouse,Similar,Full/Finished,Sgl. Att. Gar.,"",2 Storey,0.22,675000.0,67.0,2680.0,50.0,1178.0,6.0,3.0,2.5,Similar,2025-01-25T00:00:00.000000,573.0050933786079,Basic,2025,1,1,SqM,"42 Sandringham Crt, Brampton ON L6T 3Z3","42, Sandringham Court, Bramalea, Brampton, Peel Region, Golden Horseshoe, Ontario, L6T 1V4, Canada",43.7080113,-79.7204321
4775892,41 Lincoln Crt,Brampton ON L6T 3Z2,Townhouse,Superior,Full/Finished,Sgl. Att. Gar.,"",2 Storey,0.18,659900.0,7.0,2680.0,50.0,1178.0,7.0,3.0,1.5,Similar,2024-12-06T00:00:00.000000,560.1867572156197,Basic,2024,12,4,SqM,"41 Lincoln Crt, Brampton ON L6T 3Z2","41, Lincoln Court, Bramalea, Brampton, Peel Region, Golden Horseshoe, Ontario, L6T 3R0, Canada",43.7088022,-79.721872
4775892,238 Fleetwood Cres,Brampton ON L6T 2E7,Townhouse,Similar,Full/Finished,Sgl. Att. Gar.,"",2 Storey,1.84,628000.0,12.0,2680.0,54.0,1231.0,7.0,4.0,2.0,Similar,2025-03-10T00:00:00.000000,510.1543460601137,Basic,2025,3,1,SqM,"238 Fleetwood Cres, Brampton ON L6T 2E7","238, Fleetwood Crescent, Fleetwood Estates, Bramalea, Brampton, Peel Region, Golden Horseshoe, Ontario, L6T 2E4, Canada",43.7224339,-79.7129662
4776066,320 Everglade Cir SW,Calgary AB T2Y 4M8,Detached,Excellent,Full/Finished,Dbl. Att. Gar.,"",2 Storey,1.23,890000.0,33.0,430.0,19.0,2540.0,8.0,4.0,2.5,Similar,2025-03-23T00:00:00.000000,350.3937007874016,Premium,2025,3,1,SqM,"320 Everglade Cir SW, Calgary AB T2Y 4M8","320, Everglade Circle SW, Evergreen, Calgary, Alberta, T2Y 4P6, Canada",50.9216031,-114.1299488
4776066,161 Everoak Cir SW,Calgary AB T2Y 0A2,Detached,Good,Full Finished/Walkout,Dbl. Att. Gar.,"",2 Storey,0.28,900000.0,6.0,386.0,19.0,2274.0,8.0,3.0,2.5,Superior,2025-02-14T00:00:00.000000,395.77836411609496,Standard,2025,2,1,SqM,"161 Everoak Cir SW, Calgary AB T2Y 0A2","161, Everoak Circle SW, Evergreen, Calgary, Alberta, T2Y 0E7, Canada",50.9171687,-114.1105915
4776066,1845 Evergreen Dr SW,Calgary AB T2Y 5B1,Detached,Excellent,Full/Finished,Dbl. Att. Gar.,"",2 Storey,0.97,905000.0,10.0,445.0,21.0,2431.0,8.0,3.0,2.5,Similar,2025-02-08T00:00:00.000000,372.27478403948993,Premium,2025,2,1,SqM,"1845 Evergreen Dr SW, Calgary AB T2Y 5B1","1845, Evergreen Drive SW, Evergreen, Calgary, Alberta, T2Y 4N8, Canada",50.919861,-114.1017829
4773295,1584 North Shore Dr,Lowbanks ON N0A 1K0,Detached,Inferior,Full/Unfinished,2 Car Detached,"",1 Storey,3.38,500000.0,118.0,882660.5,63.0,1032.0,7.0,3.0,1.0,Similar,2025-02-27T00:00:00.000000,484.49612403100775,Basic,2025,2,1,SqFt,"1584 North Shore Dr, Lowbanks ON N0A 1K0","North Shore Drive, Lowbanks, Haldimand County, Ontario, N0A 1K0, Canada",42.8765354,-79.4457493
4773295,12017 Station Rd,Wainfleet ON L0S 1V0,Detached,Superior,Full/Unfinished,Driveway,"",1 Storey,11.28,750000.0,88.0,5202062.5,1950.0,1560.0,7.0,3.0,1.0,Superior,2024-12-11T00:00:00.000000,480.7692307692308,Basic,2024,12,4,SqFt,"12017 Station Rd, Wainfleet ON L0S 1V0","Station Road, Wainfleet, Niagara Region, Golden Horseshoe, Ontario, L0S 1V0, Canada",42.8879695,-79.3763568
4773295,7167 Rainham Rd,Dunnville ON N1A 2W8,Detached,Superior,Full/Finished,3.5 Car Detached,"",1 Storey,11.28,830000.0,88.0,2001731.0,1970.0,1700.0,7.0,3.0,2.0,Superior,2025-05-02T00:00:00.000000,488.2352941176471,Basic,2025,5,2,SqFt,"7167 Rainham Rd, Dunnville ON N1A 2W8","7167, Rainham Road, Byng, Haldimand County, Ontario, N1A 1Y4, Canada",42.8913034,-79.6423411
4775247,6 McIntyre Pl,Langdon AB T0J 1X2,Detached,Good,Full/Finished,Dbl. Att. Gar.,"",2 Storey,0.78,770000.0,9.0,920.0,20.0,2352.1,9.0,3.0,2.5,Superior,2025-04-08T00:00:00.000000,327.367033714553,Standard,2025,4,2,SqM,"6 McIntyre Pl, Langdon AB T0J 1X2","McIntyre Place, Langdon, Rocky View County, Alberta, T0J 1X2, Canada",50.9730765,-113.6904287
4775247,3 Lloyd Cres NE,Langdon AB T0J 1X1,Detached,Good,Full/Unfinished,Dbl. Att. Gar.,"",2 Storey,1.1,652500.0,16.0,1012.0,27.0,1560.55,7.0,3.0,2.5,Similar,2025-04-07T00:00:00.000000,418.12181602640095,Standard,2025,4,2,SqM,"3 Lloyd Cres NE, Langdon AB T0J 1X1","Lloyd Crescent NE, Langdon, Rocky View County, Alberta, T0J 1X2, Canada",50.9701241,-113.6709171
4775247,42 Besse Ave,Langdon AB T0J 1X2,Detached,Superior,Full/Finished,Dbl. Att. Gar.,"",2 Storey,0.2,785000.0,18.0,809.0,21.0,2238.5,8.0,4.0,2.5,Similar,2025-03-24T00:00:00.000000,350.68125977216886,Basic,2025,3,1,SqM,"42 Besse Ave, Langdon AB T0J 1X2","Besse Avenue, Langdon, Rocky View County, Alberta, T0J 1X0, Canada",50.9779378,-113.6851925
4773534,4 Philips Court,Haldimand ON N1A 2W2,Detached,Superior,Full/Unfinished,3 Car Attached,"",1 Storey,9.91,1315000.0,25.0,1362570.5,7.0,2000.0,7.0,3.0,2.5,Similar,2025-04-14T00:00:00.000000,657.5,Basic,2025,4,2,SqFt,"4 Philips Court, Haldimand ON N1A 2W2","4 Philips Court, Haldimand ON N1A 2W2",,
4773534,1376 Bird Road,Haldimand ON N1A 2W2,Detached,Similar,Full/Finished,2 Car Attached,"",2 Storey,10.28,1195000.0,16.0,1153631.0,1995.0,2009.0,8.0,3.0,2.5,Similar,2025-03-28T00:00:00.000000,594.8232951717272,Basic,2025,3,1,SqFt,"1376 Bird Road, Haldimand ON N1A 2W2","Bird Road, Dunnville, Haldimand County, Ontario, N1A 2Z2, Canada",42.9196388,-79.5820933
4773534,54025 Wellandport Rd,Wainfleet ON L0S 1V0,Detached,Inferior,Full/Finished,2 Car Detached,"",2 Storey,1.6,1410000.0,80.0,7954684.0,45.0,4302.0,8.0,4.0,3.5,Similar,2024-11-28T00:00:00.000000,327.7545327754533,Basic,2024,11,4,SqFt,"54025 Wellandport Rd, Wainfleet ON L0S 1V0","Wellandport Road, Wainfleet, Niagara Region, Golden Horseshoe, Ontario, Canada",42.9440776,-79.4808629
4773833,6040 Middle Side Rd,Amherstburg ON N9V 0C8,Detached,Average,Full/Finished,Dbl. Det. Gar.,"",1 Storey,3.16,674000.0,12.0,150150.0,52.0,1418.0,7.0,3.0,2.0,Similar,2024-11-17T00:00:00.000000,475.3173483779972,Basic,2024,11,4,SqFt,"6040 Middle Side Rd, Amherstburg ON N9V 0C8","Middle Side Road, Amherstburg, Essex County, Ontario, N9V 3R3, Canada",42.1425218,-83.0626888
4773833,7050 County Road 18,Amherstburg ON N9V 2Y7,Detached,Average,Full/Finished,Trpl. Det. Gar.,"",1 Storey,4.69,680000.0,25.0,109198.0,70.0,1089.0,7.0,6.0,2.0,Similar,2025-02-11T00:00:00.000000,624.4260789715336,Basic,2025,2,1,SqFt,"7050 County Road 18, Amherstburg ON N9V 2Y7","7050, County Road 20, Malden Centre, Amherstburg, Essex County, Ontario, N9V 2Y8, Canada",42.0594872,-83.019768
4773833,737 Concession Rd 2,Amherstburg ON N9V 3R3,Detached,Average,Full/Finished,Dbl. Att. Gar.,"",4 Level Split,2.81,760000.0,15.0,85200.0,52.0,2685.0,10.0,5.0,2.0,Similar,2025-03-04T00:00:00.000000,283.05400372439476,Standard,2025,3,1,SqFt,"737 Concession Rd 2, Amherstburg ON N9V 3R3","737, Concession Road 2, Amherstburg, Essex County, Ontario, N9V 2R8, Canada",42.1363592,-83.0865393
4776648,605 Truedell Rd,Kingston ON K7M 6S7,Detached,Average,Part/Finished,Single Attached,"",1 Storey,0.4,595000.0,6.0,501085400.0,48.0,1158.0,10.0,3.0,1.5,Inferior,2025-02-05T00:00:00.000000,513.8169257340242,Basic,2025,2,1,SqFt,"605 Truedell Rd, Kingston ON K7M 6S7","605, Truedell Road, Bayridge, Kingston, Eastern Ontario, Ontario, K7M 6W6, Canada",44.2421554,-76.5802494
4776648,355 Boxwood St,Kingston ON K7M 0B4,Detached,Similar,Full/Unfinish/WO,Single Attached,"",1 Storey,0.13,655000.0,10.0,351394865.0,17.0,1537.0,8.0,3.0,2.0,Similar,2025-04-05T00:00:00.000000,426.15484710474954,Basic,2025,4,2,SqFt,"355 Boxwood St, Kingston ON K7M 0B4","355, Boxwood Street, Bayridge, Kingston, Eastern Ontario, Ontario, K7M 4Y3, Canada",44.2384584,-76.5823701
4776648,862 Kilburn St,Kingston ON K7M 6A9,Detached,Inferior,Part/Finished,Double Attached,"",Split Level,0.45,630000.0,55.0,601156900.0,49.0,1494.0,13.0,4.0,2.0,Similar,2025-04-14T00:00:00.000000,421.68674698795184,Basic,2025,4,2,SqFt,"862 Kilburn St, Kingston ON K7M 6A9","862, Kilburn Street, Bayridge, Kingston, Eastern Ontario, Ontario, K7M 6W6, Canada",44.243089,-76.5821854
4777578,565 Boulder Creek Cir,Langdon AB T0J 1X3,Detached,Inferior,Unfinished/Walkout,Quad or More Attached,"",2 Storey,0.68,826000.0,42.0,7840.0,17.0,2342.0,8.0,3.0,2.5,Similar,2025-03-28T00:00:00.000000,352.69000853970965,Basic,2025,3,1,SqM,"565 Boulder Creek Cir, Langdon AB T0J 1X3","Boulder Creek Circle SE, Langdon, Rocky View County, Alberta, T0J 1X3, Canada",50.9630566,-113.6656808
4777578,264 Boulder Creek Dr,Langdon AB T0J 1X3,Detached,Similar,Full/Finished,Quad or More Attached,"",2 Storey,0.38,930000.0,18.0,8276.0,11.0,2700.0,8.0,3.0,3.5,Inferior,2025-04-25T00:00:00.000000,344.44444444444446,Basic,2025,4,2,SqM,"264 Boulder Creek Dr, Langdon AB T0J 1X3","Boulder Creek Drive, Langdon, Rocky View County, Alberta, T0J 1X3, Canada",50.96427,-113.6627303
4777578,115 Hanson Dr NE,Langdon AB T0J 1X1,Detached,Inferior,Full/Finished,2 Atta+ 2 Deta,"",2 Storey,1.6,837500.0,36.0,10018.0,14.0,1917.0,7.0,3.0,3.5,Inferior,2025-04-17T00:00:00.000000,436.88054251434534,Basic,2025,4,2,SqFt,"115 Hanson Dr NE, Langdon AB T0J 1X1","Hanson Drive NE, Langdon, Rocky View County, Alberta, T0J 1X1, Canada",50.9755553,-113.6650333
4776534,25 Timberline Crt SW,Calgary AB T3H 6C8,Detached,Similar,Full Finished/Walkout,Trpl. Att. Gar.,"",2 Storey,0.02,2700000.0,34.0,839.0,2.0,4180.0,9.0,5.0,3.5,Superior,2025-04-30T00:00:00.000000,645.933014354067,Basic,2025,4,2,SqM,"25 Timberline Crt SW, Calgary AB T3H 6C8","Timberline Court SW, Springbank Hill, Calgary, Alberta, T3H 5M1, Canada",51.0267523,-114.2092223
4776534,3 Timberline Gate SW,Calgary AB T3H 0W3,Detached,Inferior,Full Finished/Walkout,Trpl. Att. Gar.,"",2 Storey,0.31,1785000.0,17.0,947.0,11.0,3436.47,10.0,3.0,2.5,Inferior,2025-03-31T00:00:00.000000,519.4283668997547,Basic,2025,3,1,SqM,"3 Timberline Gate SW, Calgary AB T3H 0W3","Timberline Gate SW, Springbank Hill, Calgary, Alberta, T3H 5G3, Canada",51.0246432,-114.2102269
4776534,75 Aspen Summit Crt SW,Calgary AB T3H 0Z3,Detached,Inferior,Full Finished/Walkout,Trpl. Att. Gar.,"",2 Storey,2.17,1700000.0,35.0,754.0,10.0,3236.6,9.0,3.0,3.5,Inferior,2025-04-08T00:00:00.000000,525.2425384662918,Basic,2025,4,2,SqM,"75 Aspen Summit Crt SW, Calgary AB T3H 0Z3","Aspen Summit Court SW, Aspen Woods, Calgary, Alberta, T3H 5B1, Canada",51.046076,-114.2072349
4776574,2224 Brightoncrest Green SE,Calgary AB T2Z 5A3,Detached,Superior,Full/Finished,Dbl. Att. Gar.,"",2 Storey,1.64,819900.0,43.0,3799.0,11.0,2389.0,9.0,3.0,3.5,Similar,2025-04-17T00:00:00.000000,343.197990791126,Basic,2025,4,2,SqM,"2224 Brightoncrest Green SE, Calgary AB T2Z 5A3","2224, Brightoncrest Green SE, New Brighton, Calgary, Alberta, T2Z 0W1, Canada",50.9251154,-113.9405808
4776574,3 Copperleaf Pk SE,Calgary AB T2Z 0C1,Detached,Superior,Full/Fin/Walkout,Dbl. Att. Gar.,"",2 Storey,0.13,880868.0,22.0,5360.0,18.0,2344.0,9.0,3.0,3.5,Superior,2025-02-14T00:00:00.000000,375.79692832764505,Basic,2025,2,1,SqM,"3 Copperleaf Pk SE, Calgary AB T2Z 0C1","3, Copperleaf Park SE, Copperfield, Calgary, Alberta, T2Z 0P1, Canada",50.9124956,-113.9317781
4776574,579 Copperpond Cir SE,Calgary AB T2Z 0X2,Detached,Similar,Full/Finished,Dbl. Att. Gar.,"",2 Storey,1.16,715000.0,20.0,3961.0,15.0,2097.0,6.0,3.0,3.5,Similar,2025-03-13T00:00:00.000000,340.963280877444,Basic,2025,3,1,SqM,"579 Copperpond Cir SE, Calgary AB T2Z 0X2","579, Copperpond Circle SE, Copperfield, Calgary, Alberta, T2Z 5B6, Canada",50.9222218,-113.9276112
4777828,77 Taylor Dr,Grand Valley ON L9W 6P4,Detached,Good,Full/Finished,2 Garage,89 / X11946599,2 Storey,0.7,1028888.0,21.0,2680.0,4.0,2341.0,8.0,3.0,2.5,Similar,2025-04-28T00:00:00.000000,439.50790260572404,Standard,2025,4,2,SqM,"77 Taylor Dr, Grand Valley ON L9W 6P4","77, Taylor Drive, Grand Valley, Dufferin County, Central Ontario, Ontario, L9W 7P8, Canada",43.8935581,-80.3184901
4777828,14 Grundy Cres,Grand Valley ON L9W 7S7,Detached,Good,Full/Unfinished,2 Garage,32 / X11907987,2 Storey,0.55,1070000.0,21.0,2680.0,2.0,2432.0,8.0,4.0,2.5,Similar,2025-02-07T00:00:00.000000,439.9671052631579,Standard,2025,2,1,SqM,"14 Grundy Cres, Grand Valley ON L9W 7S7","14, Grundy Crescent, Grand Valley, Dufferin County, Central Ontario, Ontario, L9W 7P8, Canada",43.8941112,-80.321152
4777828,13 Grundy Cres,Grand Valley ON L9W 7S7,Detached,Good,Full/Unfinished,2 Garage,31 / X11978160,2 Storey,0.54,870000.0,21.0,2680.0,2.0,1916.0,6.0,3.0,2.5,Similar,2025-03-21T00:00:00.000000,454.07098121085596,Standard,2025,3,1,SqM,"13 Grundy Cres, Grand Valley ON L9W 7S7","13, Grundy Crescent, Grand Valley, Dufferin County, Central Ontario, Ontario, L9W 7P8, Canada",43.8943726,-80.3207947
4778535,1521 27 Ave SW,Calgary AB T2T 1G5,Fourplex,Superior,Full/Finished,Rear parking,"",Bi-Level,0.21,1350000.0,17.0,580.0,52.0,186.0,12.0,8.0,5.0,Similar,2025-04-12T00:00:00.000000,7258.064516129032,Basic,2025,4,2,SqM,"1521 27 Ave SW, Calgary AB T2T 1G5","1521, 27 Avenue SW, South Calgary, Calgary, Alberta, T2T 1G5, Canada",51.029324,-114.0960477
4778535,1527 28 Ave SW,Calgary AB T2T 1J3,Fourplex,Inferior,Full/Finished,Rear parking,"",Bi-Level,0.22,1190000.0,107.0,580.0,74.0,195.0,11.0,7.0,2.5,Similar,2024-11-08T00:00:00.000000,6102.5641025641025,Basic,2024,11,4,SqM,"1527 28 Ave SW, Calgary AB T2T 1J3","1527, 28 Avenue SW, South Calgary, Calgary, Alberta, T2T 1J3, Canada",51.0283777,-114.0962754
4778535,4724 Stanley Rd SW,Calgary AB T2S 2R2,Fourplex,Similar,Full/Finished,Dbl. Det. Gar.,"",Bi-Level,3.01,1232000.0,57.0,696.0,70.0,150.0,12.0,8.0,2.5,Similar,2024-12-06T00:00:00.000000,8213.333333333334,Basic,2024,12,4,SqM,"4724 Stanley Rd SW, Calgary AB T2S 2R2","Stanley Road SW, Parkhill, Calgary, Alberta, T2S 3H3, Canada",51.0167843,-114.065581
4778557,3617 Douglas Woods Hts SE,Calgary AB T2Z 2G4,Detached,Inferior,Full/Finished,Dbl. Att. Gar.,"",Bungalow,0.13,615000.0,15.0,4596.0,33.0,1286.0,5.0,2.0,3.0,Superior,2025-04-16T00:00:00.000000,478.2270606531882,Basic,2025,4,2,SqM,"3617 Douglas Woods Hts SE, Calgary AB T2Z 2G4","3617, Douglas Woods Heights SE, Douglasdale/Douglas Glen, Calgary, Alberta, T2Z 3Z1, Canada",50.9451132,-113.9862633
4778557,56 Douglasview Rise SE,Calgary AB T2Z 2P4,Detached,Inferior,Full/Finished,Dbl. Att. Gar.,"",Bi-Level,0.79,669000.0,66.0,4929.0,30.0,1514.0,6.0,2.0,3.0,Superior,2025-01-24T00:00:00.000000,441.8758256274769,Basic,2025,1,1,SqM,"56 Douglasview Rise SE, Calgary AB T2Z 2P4","56, Douglasview Rise SE, Douglasdale/Douglas Glen, Calgary, Alberta, T2Z 3Z1, Canada",50.9380127,-113.9887336
4778557,739 Queensland Dr SE,Calgary AB T2J 4S8,Detached,Similar,Full/Finished,Sgl. Att. Gar.,"",Bungalow,2.5,600000.0,16.0,5823.0,49.0,1401.0,6.0,3.0,2.5,Inferior,2024-12-28T00:00:00.000000,428.2655246252677,Basic,2024,12,4,SqM,"739 Queensland Dr SE, Calgary AB T2J 4S8","739, Queensland Drive SE, Queensland, Calgary, Alberta, T2J 6E6, Canada",50.9394688,-114.0191877
4779669,7 Peach Blossom Cres,Kitchener ON N2E 3Z6,Detached,Average,Full/Finished,Dbl. Att. Gar.,"",2 Storey,2.81,825000.0,15.0,3054.0,22.0,1617.0,8.0,4.0,2.5,Similar,2025-04-11T00:00:00.000000,510.2040816326531,Standard,2025,4,2,SqM,"7 Peach Blossom Cres, Kitchener ON N2E 3Z6","7, Peach Blossom Crescent, Laurentian West, Kitchener, Region of Waterloo, Ontario, N2E 3Y4, Canada",43.4064734,-80.5190291
4779669,61 Bush Clover Cres,Kitchener ON N2E 3P8,Detached,Average,Full/Finished,Dbl. Att. Gar.,"",2 Storey,2.87,840000.0,16.0,3150.0,22.0,1625.0,6.0,3.0,2.5,Similar,2025-02-21T00:00:00.000000,516.9230769230769,Standard,2025,2,1,SqM,"61 Bush Clover Cres, Kitchener ON N2E 3P8","61, Bush Clover Crescent, Laurentian West, Kitchener, Region of Waterloo, Ontario, N2E 4A1, Canada",43.4112824,-80.5075197
4779669,85 Eastforest Trail,Kitchener ON N2N 3M3,Detached,Inferior,Full/Unfinished,Dbl. Att. Gar.,"",2 Storey,0.01,660000.0,15.0,3653.0,26.0,1453.0,6.0,3.0,2.5,Similar,2025-01-02T00:00:00.000000,454.2326221610461,Basic,2025,1,1,SqM,"85 Eastforest Trail, Kitchener ON N2N 3M3","85, Eastforest Trail, Highland West, Kitchener, Region of Waterloo, Southwestern Ontario, Ontario, N2N 2A1, Canada",43.4299042,-80.5320206
4778791,701-121 Queen St,Kingston ON K7K 0G6,Condominium,Good,n/a,1 Space,"",1 Storey,0.2,635000.0,2.0,2680.0,8.0,825.0,7.0,2.0,1.0,Inferior,2025-03-05T00:00:00.000000,769.6969696969697,Standard,2025,3,1,SqM,"701-121 Queen St, Kingston ON K7K 0G6","701-121 Queen St, Kingston ON K7K 0G6",,
4778791,920-652 Princess St,Kingston ON K7L 1E5,Condominium,Inferior,n/a,1 Space,"",1 Storey,1.37,405000.0,21.0,2680.0,4.0,609.0,8.0,2.0,2.0,Inferior,2025-02-28T00:00:00.000000,665.0246305418719,Basic,2025,2,1,SqM,"920-652 Princess St, Kingston ON K7L 1E5","920-652 Princess St, Kingston ON K7L 1E5",,
4778791,403-501 Frontenac St,Kingston ON K7K 4L9,Condominium,Inferior,n/a,1 Space,"",1 Storey,1.09,475000.0,59.0,2680.0,5.0,818.0,5.0,2.0,2.0,Inferior,2024-11-23T00:00:00.000000,580.6845965770171,Basic,2024,11,4,SqM,"403-501 Frontenac St, Kingston ON K7K 4L9","403-501 Frontenac St, Kingston ON K7K 4L9",,
4778794,701-121 Queen St,Kingston ON K7K 0G6,Condominium,Good,n/a,1 Space,"",1 Storey,0.2,635000.0,2.0,2680.0,8.0,825.0,7.0,2.0,1.0,Similar,2025-03-05T00:00:00.000000,769.6969696969697,Standard,2025,3,1,SqM,"701-121 Queen St, Kingston ON K7K 0G6","701-121 Queen St, Kingston ON K7K 0G6",,
4778794,920-652 Princess St,Kingston ON K7L 1E5,Condominium,Inferior,n/a,1 Space,"",1 Storey,1.37,405000.0,21.0,2680.0,4.0,609.0,8.0,2.0,2.0,Inferior,2025-02-28T00:00:00.000000,665.0246305418719,Basic,2025,2,1,SqM,"920-652 Princess St, Kingston ON K7L 1E5","920-652 Princess St, Kingston ON K7L 1E5",,
4778794,403-501 Frontenac St,Kingston ON K7K 4L9,Condominium,Inferior,n/a,1 Space,"",1 Storey,1.09,475000.0,59.0,2680.0,5.0,818.0,5.0,2.0,2.0,Inferior,2024-11-23T00:00:00.000000,580.6845965770171,Basic,2024,11,4,SqM,"403-501 Frontenac St, Kingston ON K7K 4L9","403-501 Frontenac St, Kingston ON K7K 4L9",,
4778797,701-121 Queen St,Kingston ON K7K 0G6,Condominium,Good,n/a,1 Space,"",1 Storey,0.2,635000.0,2.0,2680.0,8.0,825.0,7.0,2.0,1.0,Similar,2025-03-05T00:00:00.000000,769.6969696969697,Standard,2025,3,1,SqM,"701-121 Queen St, Kingston ON K7K 0G6","701-121 Queen St, Kingston ON K7K 0G6",,
4778797,920-652 Princess St,Kingston ON K7L 1E5,Condominium,Inferior,n/a,1 Space,"",1 Storey,1.37,405000.0,21.0,2680.0,4.0,609.0,8.0,2.0,2.0,Inferior,2025-02-28T00:00:00.000000,665.0246305418719,Basic,2025,2,1,SqM,"920-652 Princess St, Kingston ON K7L 1E5","920-652 Princess St, Kingston ON K7L 1E5",,
4778797,403-501 Frontenac St,Kingston ON K7K 4L9,Condominium,Inferior,n/a,1 Space,"",1 Storey,1.09,475000.0,59.0,2680.0,5.0,818.0,5.0,2.0,2.0,Inferior,2024-11-23T00:00:00.000000,580.6845965770171,Basic,2024,11,4,SqM,"403-501 Frontenac St, Kingston ON K7K 4L9","403-501 Frontenac St, Kingston ON K7K 4L9",,
4778326,123 Sandringham Pl NW,Calgary AB T3K 3V8,Detached,Similar,Developed/1F,Dbl. Att. Gar.,"",2 Storey,0.47,760000.0,28.0,632.0,35.0,1788.0,8.0,3.0,2.5,Superior,2025-04-11T00:00:00.000000,425.0559284116331,Basic,2025,4,2,SqM,"123 Sandringham Pl NW, Calgary AB T3K 3V8","123, 100 Sandringham Place NW, Sandstone Valley, Calgary, Alberta, T3K 3Y5, Canada",51.1361416,-114.1049403
4778326,164 Sandpiper Cir NW,Calgary AB T3K 3M5,Detached,Similar,Full/Finished,Dbl. Att. Gar.,"",2 Storey,0.08,722500.0,8.0,372.0,38.0,1682.55,7.0,3.0,2.5,Superior,2025-03-08T00:00:00.000000,429.407744197795,Basic,2025,3,1,SqM,"164 Sandpiper Cir NW, Calgary AB T3K 3M5","164, Sandpiper Circle NW, Sandstone Valley, Calgary, Alberta, T3K 3P4, Canada",51.1382016,-114.0978469
4778326,108 Macewan Park Green NW,Calgary AB T3K 4E5,Detached,Good,Developed/1F,Dbl. Att. Gar.,"",4 Level Split,1.41,888000.0,16.0,574.0,33.0,2100.0,8.0,3.0,2.5,Superior,2025-04-10T00:00:00.000000,422.85714285714283,Standard,2025,4,2,SqM,"108 Macewan Park Green NW, Calgary AB T3K 4E5","108, MacEwan Park Green NW, MacEwan Glen, Calgary, Alberta, T3K 4K3, Canada",51.1335703,-114.1176563
4758996,168 Marquis Pl SE,Airdrie AB T4A 1Y6,Detached,Average,Developed/1F,Dbl. Det. Gar.,"",Bungalow,0.03,530000.0,34.0,713.0,46.0,1377.9,7.0,3.0,2.5,Similar,2025-04-02T00:00:00.000000,384.6432977719718,Basic,2025,4,2,SqM,"168 Marquis Pl SE, Airdrie AB T4A 1Y6","168, Marquis Place SE, Meadowbrook, Airdrie, Alberta, T4A 1Y6, Canada",51.2712248,-113.9889048
4758996,1852 Meadowbrook Dr SE,Airdrie AB T4A 1V2,Detached,Average,Part Devel. /1F,Dbl. Det. Gar.,"",Bi-Level,0.54,518000.0,20.0,456.0,42.0,1071.86,5.0,3.0,2.5,Superior,2025-03-28T00:00:00.000000,483.2720691135037,Basic,2025,3,1,SqM,"1852 Meadowbrook Dr SE, Airdrie AB T4A 1V2","1852, Meadowbrook Drive SE, Meadowbrook, Airdrie, Alberta, T4A 1V2, Canada",51.2761141,-113.9884062
4758996,156 Marquis Pl SE,Airdrie AB T4A 1Y7,Detached,Superior,Devel. WO/1F,Dbl. Det. Gar.,"",4 Level Split,0.01,565000.0,12.0,518.0,46.0,1085.91,6.0,3.0,2.5,Similar,2025-02-25T00:00:00.000000,520.3009457505686,Basic,2025,2,1,SqM,"156 Marquis Pl SE, Airdrie AB T4A 1Y7","156, Marquis Place SE, Meadowbrook, Airdrie, Alberta, T4A 1Y7, Canada",51.2712458,-113.9882887
4775785,1977 Thorpe Road,Loyalist,Detached,Superior,No Basement,No Garage,"",2 Storey,4.67,830000.0,32.0,125030.0,4.0,1844.0,10.0,3.0,2.0,Similar,2025-01-03T00:00:00.000000,450.10845986984816,Basic,2025,1,1,SqFt,"1977 Thorpe Road, Loyalist","Thorpe Road, Loyalist, Lennox and Addington County, Eastern Ontario, Ontario, K7R 3M3, Canada",44.3135075,-76.7721091
4775785,116 Dowdle Rd,Newburgh ON K0K 2S0,Detached,Superior,Cellar,Single Attached,"",2 Storey,16.86,890000.0,43.0,2680.0,112.0,3790.0,14.0,5.0,2.5,Similar,2025-04-04T00:00:00.000000,234.82849604221636,Basic,2025,4,2,SqM,"116 Dowdle Rd, Newburgh ON K0K 2S0","116 Dowdle Rd, Newburgh ON K0K 2S0",,
4775785,3858 County Rd 1 E,Yarker ON K0K 3N0,Detached,Inferior,Crawl Space,Single Detached,"",2 Storey,5.81,616000.0,52.0,4006505.9,141.0,2523.0,11.0,3.0,1.5,Similar,2025-04-04T00:00:00.000000,244.15378517637734,Basic,2025,4,2,SqFt,"3858 County Rd 1 E, Yarker ON K0K 3N0","3858 County Rd 1 E, Yarker ON K0K 3N0",,
4775292,8 Hilltop Cres,East Garafraxa ON L9W 6B8,Detached,Superior,Full/Finished,Dbl. Att. Gar.,"",Bungalow,16.85,1375000.0,20.0,2.17,50.0,1240.0,6.0,1.0,2.5,Similar,2025-04-02T00:00:00.000000,1108.8709677419354,Basic,2025,4,2,SqM,"8 Hilltop Cres, East Garafraxa ON L9W 6B8","8, Hilltop Crescent, East Garafraxa, Dufferin County, Central Ontario, Ontario, L9W 5E6, Canada",43.8980613,-80.1331973
4775292,5739 Sixth Line,Hillsburgh ON N0B 1Z0,Detached,Average,Full/Finished,1.5 car attached garage,"",Bungalow,11.17,1490000.0,32.0,2.0,35.0,1634.0,7.0,3.0,2.5,Similar,2025-02-09T00:00:00.000000,911.8727050183599,Standard,2025,2,1,SqM,"5739 Sixth Line, Hillsburgh ON N0B 1Z0","5739 Sixth Line, Hillsburgh ON N0B 1Z0",,
4775292,7167 Seventh Line,Belwood ON N0B 1J0,Detached,Average,None,No garage,"",Bungalow,12.14,1150000.0,15.0,10.0,31.0,1610.0,6.0,3.0,2.5,Similar,2024-11-20T00:00:00.000000,714.2857142857143,Standard,2024,11,4,SqM,"7167 Seventh Line, Belwood ON N0B 1J0","7167 Seventh Line, Belwood ON N0B 1J0",,
4723364,2738 Isle of Man Rd,Kingston ON K7L 4V3,Detached,Superior,Crawl Space,Sgl. Att. Gar.,"",1.5 Storey,2.94,435000.0,168.0,2670.87,105.0,814.0,9.0,2.0,1.5,Superior,2024-11-20T00:00:00.000000,534.3980343980344,Basic,2024,11,4,SqM,"2738 Isle of Man Rd, Kingston ON K7L 4V3","2738, Isle of Man Road, Kingston, Eastern Ontario, Ontario, K7L 5H6, Canada",44.3220906,-76.3996459
4723364,2480 Hitchcock Rd,Joyceville ON K0H 1Y0,Detached,Inferior,Cellar,No Garage,"",Bungalow,9.98,349000.0,18.0,353126010.1,60.0,1350.0,7.0,3.0,1.0,Inferior,2024-11-18T00:00:00.000000,258.51851851851853,Basic,2024,11,4,SqFt,"2480 Hitchcock Rd, Joyceville ON K0H 1Y0","2480 Hitchcock Rd, Joyceville ON K0H 1Y0",,
4723364,1996 McFarlane Rd,Kingston ON K7L 4V3,Detached,Average,Cellar,Trpl. Det. Gar.,"",2 Storey,6.44,400000.0,98.0,2411.0,125.0,984.0,12.0,2.0,1.0,Similar,2024-10-04T00:00:00.000000,406.5040650406504,Basic,2024,10,4,SqM,"1996 McFarlane Rd, Kingston ON K7L 4V3","1996, McFarlane Road, Pine Hill, Kingston, Eastern Ontario, Ontario, K7M 8S5, Canada",44.34107,-76.3621488
